<?xml version="1.0" encoding="UTF-8"?>
<dataroot xmlns:od="urn:schemas-microsoft-com:officedata" xmlns:xsi="http://www.w3.org/2001/XMLSchema-instance"  xsi:noNamespaceSchemaLocation="refuge.xsd" generated="2012-06-18T17:27:32">
<refuge>
<no>1</no>
<areano>1</areano>
<area>鯖江</area>
<typeno>1</typeno>
<type>避難所</type>
<name>惜陰小学校</name>
<address>日の出町６－３７</address>
<tel>+81-778-51-2866</tel>
<latitude>35.942551</latitude>
<longitude>136.186417</longitude>
<url>http://www3.city.sabae.fukui.jp/xml/refuge2/#1</url>
</refuge>
<refuge>
<no>2</no>
<areano>1</areano>
<area>鯖江</area>
<typeno>1</typeno>
<type>避難所</type>
<name>進徳小学校</name>
<address>長泉寺町２丁目５－１</address>
<tel>+81-778-53-1503</tel>
<latitude>35.954194</latitude>
<longitude>136.18506</longitude>
<url>http://www3.city.sabae.fukui.jp/xml/refuge2/#2</url>
</refuge>
<refuge>
<no>3</no>
<areano>1</areano>
<area>鯖江</area>
<typeno>1</typeno>
<type>避難所</type>
<name>鯖江中学校</name>
<address>小黒町２丁目１２－1</address>
<tel>+81-778-51-2890</tel>
<latitude>35.952001</latitude>
<longitude>136.175004</longitude>
<url>http://www3.city.sabae.fukui.jp/xml/refuge2/#3</url>
</refuge>
<refuge>
<no>4</no>
<areano>1</areano>
<area>鯖江</area>
<typeno>1</typeno>
<type>避難所</type>
<name>鯖江幼稚園</name>
<address>日の出町６－３７</address>
<tel>+81-778-51-0562</tel>
<latitude>35.942516</latitude>
<longitude>136.186058</longitude>
<url>http://www3.city.sabae.fukui.jp/xml/refuge2/#4</url>
</refuge>
<refuge>
<no>5</no>
<areano>1</areano>
<area>鯖江</area>
<typeno>1</typeno>
<type>避難所</type>
<name>王山保育所</name>
<address>日の出町６－３７</address>
<tel>+81-778-51-0640</tel>
<latitude>35.942516</latitude>
<longitude>136.186058</longitude>
<url>http://www3.city.sabae.fukui.jp/xml/refuge2/#5</url>
</refuge>
<refuge>
<no>6</no>
<areano>1</areano>
<area>鯖江</area>
<typeno>1</typeno>
<type>避難所</type>
<name>進徳幼稚園</name>
<address>長泉寺町１丁目９－１９</address>
<tel>+81-778-51-7717</tel>
<latitude>35.953161</latitude>
<longitude>136.184309</longitude>
<url>http://www3.city.sabae.fukui.jp/xml/refuge2/#6</url>
</refuge>
<refuge>
<no>7</no>
<areano>1</areano>
<area>鯖江</area>
<typeno>1</typeno>
<type>避難所</type>
<name>鯖江公民館</name>
<address>桜町１丁目１－１６</address>
<tel>+81-778-51-3010</tel>
<latitude>35.945387</latitude>
<longitude>136.183129</longitude>
<url>http://www3.city.sabae.fukui.jp/xml/refuge2/#7</url>
</refuge>
<refuge>
<no>8</no>
<areano>1</areano>
<area>鯖江</area>
<typeno>1</typeno>
<type>避難所</type>
<name>早稲田保育所</name>
<address>本町４丁目６－１７</address>
<tel>+81-778-51-0364</tel>
<latitude>35.949213</latitude>
<longitude>136.184459</longitude>
<url>http://www3.city.sabae.fukui.jp/xml/refuge2/#8</url>
</refuge>
<refuge>
<no>9</no>
<areano>1</areano>
<area>鯖江</area>
<typeno>1</typeno>
<type>避難所</type>
<name>嚮陽会館</name>
<address>桜町２丁目７－１</address>
<tel>+81-778-52-5789</tel>
<latitude>35.947928</latitude>
<longitude>136.17939</longitude>
<url>http://www3.city.sabae.fukui.jp/xml/refuge2/#9</url>
</refuge>
<refuge>
<no>10</no>
<areano>1</areano>
<area>鯖江</area>
<typeno>1</typeno>
<type>避難所</type>
<name>市民活動交流センター</name>
<address>長泉寺町１丁目９－２０</address>
<tel>+81-778-54-7055</tel>
<latitude>35.953847</latitude>
<longitude>136.184336</longitude>
<url>http://www3.city.sabae.fukui.jp/xml/refuge2/#10</url>
</refuge>
<refuge>
<no>11</no>
<areano>1</areano>
<area>鯖江</area>
<typeno>1</typeno>
<type>避難所</type>
<name>本町児童センター</name>
<address>本町４丁目６－１６</address>
<tel>+81-778-52-8903</tel>
<latitude>35.9495</latitude>
<longitude>136.184375</longitude>
<url>http://www3.city.sabae.fukui.jp/xml/refuge2/#11</url>
</refuge>
<refuge>
<no>12</no>
<areano>1</areano>
<area>鯖江</area>
<typeno>1</typeno>
<type>避難所</type>
<name>舟津児童センター</name>
<address>舟津町４丁目８－１６</address>
<tel>+81-778-51-3329</tel>
<latitude>35.934743</latitude>
<longitude>136.181783</longitude>
<url>http://www3.city.sabae.fukui.jp/xml/refuge2/#12</url>
</refuge>
<refuge>
<no>13</no>
<areano>1</areano>
<area>鯖江</area>
<typeno>1</typeno>
<type>避難所</type>
<name>小黒町児童センター</name>
<address>小黒町１丁目１－１８</address>
<tel>+81-778-52-4529</tel>
<latitude>35.951405</latitude>
<longitude>136.178958</longitude>
<url>http://www3.city.sabae.fukui.jp/xml/refuge2/#13</url>
</refuge>
<refuge>
<no>14</no>
<areano>1</areano>
<area>鯖江</area>
<typeno>1</typeno>
<type>避難所</type>
<name>有定児童センター</name>
<address>有定町２丁目８－２１</address>
<tel>+81-778-51-2985</tel>
<latitude>35.951405</latitude>
<longitude>136.178958</longitude>
<url>http://www3.city.sabae.fukui.jp/xml/refuge2/#14</url>
</refuge>
<refuge>
<no>15</no>
<areano>1</areano>
<area>鯖江</area>
<typeno>1</typeno>
<type>避難所</type>
<name>柳町児童センター</name>
<address>柳町２丁目１－８</address>
<tel>+81-778-52-9302</tel>
<latitude>35.94713</latitude>
<longitude>136.189193</longitude>
<url>http://www3.city.sabae.fukui.jp/xml/refuge2/#15</url>
</refuge>
<refuge>
<no>16</no>
<areano>1</areano>
<area>鯖江</area>
<typeno>1</typeno>
<type>避難所</type>
<name>長泉寺児童センター</name>
<address>長泉寺町２丁目３－１１</address>
<tel>+81-778-52-0697</tel>
<latitude>35.954759</latitude>
<longitude>136.187054</longitude>
<url>http://www3.city.sabae.fukui.jp/xml/refuge2/#16</url>
</refuge>
<refuge>
<no>17</no>
<areano>1</areano>
<area>鯖江</area>
<typeno>1</typeno>
<type>避難所</type>
<name>地域交流センター（市民ホールつつじ）</name>
<address>本町２丁目２－１６</address>
<tel>+81-778-54-7000</tel>
<latitude>35.946249</latitude>
<longitude>136.185045</longitude>
<url>http://www3.city.sabae.fukui.jp/xml/refuge2/#17</url>
</refuge>
<refuge>
<no>18</no>
<areano>1</areano>
<area>鯖江</area>
<typeno>1</typeno>
<type>避難所</type>
<name>ふれあいみんなの館・さばえ</name>
<address>上鯖江１丁目４－１</address>
<tel>+81-778-51-8785</tel>
<latitude>35.937634</latitude>
<longitude>136.179772</longitude>
<url>http://www3.city.sabae.fukui.jp/xml/refuge2/#18</url>
</refuge>
<refuge>
<no>19</no>
<areano>1</areano>
<area>鯖江</area>
<typeno>1</typeno>
<type>避難所</type>
<name>公園管理事務所</name>
<address>桜町３丁目７－２０</address>
<tel>+81-778-51-1001</tel>
<latitude>35.950025</latitude>
<longitude>136.18307</longitude>
<url>http://www3.city.sabae.fukui.jp/xml/refuge2/#19</url>
</refuge>
<refuge>
<no>20</no>
<areano>1</areano>
<area>鯖江</area>
<typeno>1</typeno>
<type>避難所</type>
<name>資料館</name>
<address>長泉寺町１丁目９－２０</address>
<tel>+81-778-51-5999</tel>
<latitude>35.953521</latitude>
<longitude>136.184349</longitude>
<url>http://www3.city.sabae.fukui.jp/xml/refuge2/#20</url>
</refuge>
<refuge>
<no>21</no>
<areano>1</areano>
<area>鯖江</area>
<typeno>1</typeno>
<type>避難所</type>
<name>スポーツ交流館</name>
<address>宮前２丁目９－１</address>
<tel>+81-778-53-0369</tel>
<latitude>35.930809</latitude>
<longitude>136.184013</longitude>
<url>http://www3.city.sabae.fukui.jp/xml/refuge2/#21</url>
</refuge>
<refuge>
<no>22</no>
<areano>1</areano>
<area>鯖江</area>
<typeno>1</typeno>
<type>避難所</type>
<name>西山公園</name>
<address>桜町</address>
<latitude>35.950484</latitude>
<longitude>136.182254</longitude>
<url>http://www3.city.sabae.fukui.jp/xml/refuge2/#22</url>
</refuge>
<refuge>
<no>23</no>
<areano>1</areano>
<area>鯖江</area>
<typeno>2</typeno>
<type>一時避難場所</type>
<name>本法寺</name>
<address>鯖江市本町1丁目1－2</address>
<tel>+81-778-51-0572</tel>
<latitude>35.943768</latitude>
<longitude>136.185843</longitude>
<url>http://www3.city.sabae.fukui.jp/xml/refuge2/#23</url>
</refuge>
<refuge>
<no>24</no>
<areano>1</areano>
<area>鯖江</area>
<typeno>2</typeno>
<type>一時避難場所</type>
<name>本町２丁目ポケットパーク</name>
<address>本町２丁目</address>
<latitude>35.945323</latitude>
<longitude>136.185105</longitude>
<url>http://www3.city.sabae.fukui.jp/xml/refuge2/#24</url>
</refuge>
<refuge>
<no>25</no>
<areano>1</areano>
<area>鯖江</area>
<typeno>2</typeno>
<type>一時避難場所</type>
<name>誠照寺</name>
<address>本町３丁目</address>
<tel>+81-778-51-0139</tel>
<latitude>35.946995</latitude>
<longitude>136.184338</longitude>
<url>http://www3.city.sabae.fukui.jp/xml/refuge2/#25</url>
</refuge>
<refuge>
<no>26</no>
<areano>1</areano>
<area>鯖江</area>
<typeno>2</typeno>
<type>一時避難場所</type>
<name>早稲田保育所</name>
<address>本町４丁目</address>
<tel>+81-778-51-0364</tel>
<latitude>35.949213</latitude>
<longitude>136.184459</longitude>
<url>http://www3.city.sabae.fukui.jp/xml/refuge2/#26</url>
</refuge>
<refuge>
<no>27</no>
<areano>1</areano>
<area>鯖江</area>
<typeno>2</typeno>
<type>一時避難場所</type>
<name>松阜神社</name>
<address>鯖江市旭町1丁目2-14</address>
<tel>+81-778-53-0523</tel>
<latitude>35.94428</latitude>
<longitude>136.187864</longitude>
<url>http://www3.city.sabae.fukui.jp/xml/refuge2/#27</url>
</refuge>
<refuge>
<no>28</no>
<areano>1</areano>
<area>鯖江</area>
<typeno>2</typeno>
<type>一時避難場所</type>
<name>旭町２丁目公民館</name>
<address>旭町２丁目</address>
<latitude>35.94576</latitude>
<longitude>136.188226</longitude>
<url>http://www3.city.sabae.fukui.jp/xml/refuge2/#28</url>
</refuge>
<refuge>
<no>29</no>
<areano>1</areano>
<area>鯖江</area>
<typeno>2</typeno>
<type>一時避難場所</type>
<name>旭町３丁目公園</name>
<address>旭町３丁目</address>
<latitude>35.946651</latitude>
<longitude>136.188197</longitude>
<url>http://www3.city.sabae.fukui.jp/xml/refuge2/#29</url>
</refuge>
<refuge>
<no>30</no>
<areano>1</areano>
<area>鯖江</area>
<typeno>2</typeno>
<type>一時避難場所</type>
<name>旭公園</name>
<address>旭町４丁目</address>
<latitude>35.949638</latitude>
<longitude>136.187344</longitude>
<url>http://www3.city.sabae.fukui.jp/xml/refuge2/#30</url>
</refuge>
<refuge>
<no>31</no>
<areano>1</areano>
<area>鯖江</area>
<typeno>2</typeno>
<type>一時避難場所</type>
<name>東鯖江会館</name>
<address>柳町１・横江町１・２丁目</address>
<latitude>35.942644</latitude>
<longitude>136.189574</longitude>
<url>http://www3.city.sabae.fukui.jp/xml/refuge2/#31</url>
</refuge>
<refuge>
<no>32</no>
<areano>1</areano>
<area>鯖江</area>
<typeno>2</typeno>
<type>一時避難場所</type>
<name>柳町児童センター</name>
<address>柳町２丁目</address>
<tel>+81-778-52-9302</tel>
<latitude>35.94716</latitude>
<longitude>136.189215</longitude>
<url>http://www3.city.sabae.fukui.jp/xml/refuge2/#32</url>
</refuge>
<refuge>
<no>33</no>
<areano>1</areano>
<area>鯖江</area>
<typeno>2</typeno>
<type>一時避難場所</type>
<name>柳町団地遊園地</name>
<address>柳町団地</address>
<latitude>35.949376</latitude>
<longitude>136.190489</longitude>
<url>http://www3.city.sabae.fukui.jp/xml/refuge2/#33</url>
</refuge>
<refuge>
<no>34</no>
<areano>1</areano>
<area>鯖江</area>
<typeno>2</typeno>
<type>一時避難場所</type>
<name>東鯖江第１公園</name>
<address>柳町３・４丁目</address>
<latitude>35.948744</latitude>
<longitude>136.192518</longitude>
<url>http://www3.city.sabae.fukui.jp/xml/refuge2/#34</url>
</refuge>
<refuge>
<no>35</no>
<areano>1</areano>
<area>鯖江</area>
<typeno>2</typeno>
<type>一時避難場所</type>
<name>東鯖江第３公園</name>
<address>柳町３・４丁目</address>
<latitude>35.945302</latitude>
<longitude>136.192381</longitude>
<url>http://www3.city.sabae.fukui.jp/xml/refuge2/#35</url>
</refuge>
<refuge>
<no>36</no>
<areano>1</areano>
<area>鯖江</area>
<typeno>2</typeno>
<type>一時避難場所</type>
<name>嚮陽会館</name>
<address>桜町１・２・３丁目</address>
<tel>+81-778-52-5789</tel>
<latitude>35.947928</latitude>
<longitude>136.17939</longitude>
<url>http://www3.city.sabae.fukui.jp/xml/refuge2/#36</url>
</refuge>
<refuge>
<no>37</no>
<areano>1</areano>
<area>鯖江</area>
<typeno>2</typeno>
<type>一時避難場所</type>
<name>桜町ふれあい広場</name>
<address>桜町１・２・３丁目</address>
<latitude>35.947335</latitude>
<longitude>136.18103</longitude>
<url>http://www3.city.sabae.fukui.jp/xml/refuge2/#37</url>
</refuge>
<refuge>
<no>38</no>
<areano>1</areano>
<area>鯖江</area>
<typeno>2</typeno>
<type>一時避難場所</type>
<name>進徳小学校</name>
<address>長泉寺町１・２丁目</address>
<tel>+81-778-53-1503</tel>
<latitude>35.954194</latitude>
<longitude>136.18506</longitude>
<url>http://www3.city.sabae.fukui.jp/xml/refuge2/#38</url>
</refuge>
<refuge>
<no>39</no>
<areano>1</areano>
<area>鯖江</area>
<typeno>2</typeno>
<type>一時避難場所</type>
<name>建設業会館南広場</name>
<address>西山町</address>
<latitude>35.955529</latitude>
<longitude>136.183171</longitude>
<url>http://www3.city.sabae.fukui.jp/xml/refuge2/#39</url>
</refuge>
<refuge>
<no>40</no>
<areano>1</areano>
<area>鯖江</area>
<typeno>2</typeno>
<type>一時避難場所</type>
<name>惜陰小学校</name>
<address>日の出町・深江町</address>
<tel>+81-778-51-2866</tel>
<latitude>35.942551</latitude>
<longitude>136.186417</longitude>
<url>http://www3.city.sabae.fukui.jp/xml/refuge2/#40</url>
</refuge>
<refuge>
<no>41</no>
<areano>1</areano>
<area>鯖江</area>
<typeno>2</typeno>
<type>一時避難場所</type>
<name>屋形町児童公園</name>
<address>屋形町</address>
<latitude>35.944751</latitude>
<longitude>136.184002</longitude>
<url>http://www3.city.sabae.fukui.jp/xml/refuge2/#41</url>
</refuge>
<refuge>
<no>42</no>
<areano>1</areano>
<area>鯖江</area>
<typeno>2</typeno>
<type>一時避難場所</type>
<name>鯖江高校グラウンド</name>
<address>舟津町１丁目</address>
<latitude>35.93851</latitude>
<longitude>136.185086</longitude>
<url>http://www3.city.sabae.fukui.jp/xml/refuge2/#42</url>
</refuge>
<refuge>
<no>43</no>
<areano>1</areano>
<area>鯖江</area>
<typeno>2</typeno>
<type>一時避難場所</type>
<name>鯖江高校</name>
<address>舟津町２丁目</address>
<tel>+81-778-51-0001</tel>
<latitude>35.937623</latitude>
<longitude>136.185794</longitude>
<url>http://www3.city.sabae.fukui.jp/xml/refuge2/#43</url>
</refuge>
<refuge>
<no>44</no>
<areano>1</areano>
<area>鯖江</area>
<typeno>2</typeno>
<type>一時避難場所</type>
<name>佐々木工場跡地</name>
<address>舟津町３丁目</address>
<latitude>35.93585</latitude>
<longitude>136.181672</longitude>
<url>http://www3.city.sabae.fukui.jp/xml/refuge2/#44</url>
</refuge>
<refuge>
<no>45</no>
<areano>1</areano>
<area>鯖江</area>
<typeno>2</typeno>
<type>一時避難場所</type>
<name>舟津町３丁目公園</name>
<address>舟津町３丁目</address>
<latitude>35.937339</latitude>
<longitude>136.181243</longitude>
<url>http://www3.city.sabae.fukui.jp/xml/refuge2/#45</url>
</refuge>
<refuge>
<no>46</no>
<areano>1</areano>
<area>鯖江</area>
<typeno>2</typeno>
<type>一時避難場所</type>
<name>舟津児童センター</name>
<address>舟津町４丁目</address>
<tel>+81-778-51-3329</tel>
<latitude>35.934743</latitude>
<longitude>136.181783</longitude>
<url>http://www3.city.sabae.fukui.jp/xml/refuge2/#46</url>
</refuge>
<refuge>
<no>47</no>
<areano>1</areano>
<area>鯖江</area>
<typeno>2</typeno>
<type>一時避難場所</type>
<name>舟津西公園</name>
<address>舟津町５丁目</address>
<latitude>35.93108</latitude>
<longitude>136.178888</longitude>
<url>http://www3.city.sabae.fukui.jp/xml/refuge2/#47</url>
</refuge>
<refuge>
<no>48</no>
<areano>1</areano>
<area>鯖江</area>
<typeno>2</typeno>
<type>一時避難場所</type>
<name>鯖江中学校</name>
<address>小黒町１・２・３丁目</address>
<tel>+81-778-51-2890</tel>
<latitude>35.952001</latitude>
<longitude>136.175004</longitude>
<url>http://www3.city.sabae.fukui.jp/xml/refuge2/#48</url>
</refuge>
<refuge>
<no>49</no>
<areano>1</areano>
<area>鯖江</area>
<typeno>2</typeno>
<type>一時避難場所</type>
<name>住吉第１公園</name>
<address>住吉町１丁目</address>
<latitude>35.942404</latitude>
<longitude>136.181873</longitude>
<url>http://www3.city.sabae.fukui.jp/xml/refuge2/#49</url>
</refuge>
<refuge>
<no>50</no>
<areano>1</areano>
<area>鯖江</area>
<typeno>2</typeno>
<type>一時避難場所</type>
<name>住吉第２公園</name>
<address>住吉町２丁目</address>
<latitude>35.939499</latitude>
<longitude>136.177298</longitude>
<url>http://www3.city.sabae.fukui.jp/xml/refuge2/#50</url>
</refuge>
<refuge>
<no>51</no>
<areano>1</areano>
<area>鯖江</area>
<typeno>2</typeno>
<type>一時避難場所</type>
<name>ひまわり公園</name>
<address>住吉町３丁目</address>
<latitude>35.940444</latitude>
<longitude>136.18012</longitude>
<url>http://www3.city.sabae.fukui.jp/xml/refuge2/#51</url>
</refuge>
<refuge>
<no>52</no>
<areano>1</areano>
<area>鯖江</area>
<typeno>2</typeno>
<type>一時避難場所</type>
<name>南公園</name>
<address>有定町１丁目</address>
<latitude>35.943345</latitude>
<longitude>136.177247</longitude>
<url>http://www3.city.sabae.fukui.jp/xml/refuge2/#52</url>
</refuge>
<refuge>
<no>53</no>
<areano>1</areano>
<area>鯖江</area>
<typeno>2</typeno>
<type>一時避難場所</type>
<name>有定第１公園</name>
<address>有定町２丁目</address>
<latitude>35.945534</latitude>
<longitude>136.173921</longitude>
<url>http://www3.city.sabae.fukui.jp/xml/refuge2/#53</url>
</refuge>
<refuge>
<no>54</no>
<areano>1</areano>
<area>鯖江</area>
<typeno>2</typeno>
<type>一時避難場所</type>
<name>小黒第１公園</name>
<address>有定町３丁目</address>
<latitude>35.950343</latitude>
<longitude>136.174358</longitude>
<url>http://www3.city.sabae.fukui.jp/xml/refuge2/#54</url>
</refuge>
<refuge>
<no>55</no>
<areano>1</areano>
<area>鯖江</area>
<typeno>2</typeno>
<type>一時避難場所</type>
<name>宮前公園</name>
<address>宮前１・２丁目</address>
<latitude>35.935553</latitude>
<longitude>136.18745</longitude>
<url>http://www3.city.sabae.fukui.jp/xml/refuge2/#55</url>
</refuge>
<refuge>
<no>56</no>
<areano>1</areano>
<area>鯖江</area>
<typeno>2</typeno>
<type>一時避難場所</type>
<name>上鯖江第１公園</name>
<address>上鯖江１・２丁目</address>
<latitude>35.936152</latitude>
<longitude>136.178429</longitude>
<url>http://www3.city.sabae.fukui.jp/xml/refuge2/#56</url>
</refuge>
<refuge>
<no>57</no>
<areano>1</areano>
<area>鯖江</area>
<typeno>3</typeno>
<type>医療機関</type>
<name>赤川整形外科医院</name>
<address>住吉町２丁目１６－１２</address>
<tel>+81-778-52-1117</tel>
<latitude>35.93994</latitude>
<longitude>136.18048</longitude>
<url>http://www3.city.sabae.fukui.jp/xml/refuge2/#57</url>
</refuge>
<refuge>
<no>58</no>
<areano>1</areano>
<area>鯖江</area>
<typeno>3</typeno>
<type>医療機関</type>
<name>カマカズ医院</name>
<address>日の出町５－４</address>
<tel>+81-778-51-0207</tel>
<latitude>35.942773</latitude>
<longitude>136.186919</longitude>
<url>http://www3.city.sabae.fukui.jp/xml/refuge2/#58</url>
</refuge>
<refuge>
<no>59</no>
<areano>1</areano>
<area>鯖江</area>
<typeno>3</typeno>
<type>医療機関</type>
<name>川口小児科医院</name>
<address>桜町２丁目８－２２</address>
<tel>+81-778-51-0025</tel>
<latitude>35.946736</latitude>
<longitude>136.179807</longitude>
<url>http://www3.city.sabae.fukui.jp/xml/refuge2/#59</url>
</refuge>
<refuge>
<no>60</no>
<areano>1</areano>
<area>鯖江</area>
<typeno>3</typeno>
<type>医療機関</type>
<name>木水医院</name>
<address>旭町１丁目９－１</address>
<tel>+81-778-51-7557</tel>
<latitude>35.943589</latitude>
<longitude>136.186808</longitude>
<url>http://www3.city.sabae.fukui.jp/xml/refuge2/#60</url>
</refuge>
<refuge>
<no>61</no>
<areano>1</areano>
<area>鯖江</area>
<typeno>3</typeno>
<type>医療機関</type>
<name>木村病院</name>
<address>旭町４丁目４－９</address>
<tel>+81-778-51-0478</tel>
<latitude>35.948842</latitude>
<longitude>136.186635</longitude>
<url>http://www3.city.sabae.fukui.jp/xml/refuge2/#61</url>
</refuge>
<refuge>
<no>62</no>
<areano>1</areano>
<area>鯖江</area>
<typeno>3</typeno>
<type>医療機関</type>
<name>斎藤医院</name>
<address>本町３丁目１－２５</address>
<tel>+81-778-51-0073</tel>
<latitude>35.947078</latitude>
<longitude>136.186142</longitude>
<url>http://www3.city.sabae.fukui.jp/xml/refuge2/#62</url>
</refuge>
<refuge>
<no>63</no>
<areano>1</areano>
<area>鯖江</area>
<typeno>3</typeno>
<type>医療機関</type>
<name>鯖江清水眼科</name>
<address>旭町２丁目１－３０</address>
<tel>+81-778-51-0067</tel>
<latitude>35.945363</latitude>
<longitude>136.188403</longitude>
<url>http://www3.city.sabae.fukui.jp/xml/refuge2/#63</url>
</refuge>
<refuge>
<no>64</no>
<areano>1</areano>
<area>鯖江</area>
<typeno>3</typeno>
<type>医療機関</type>
<name>鯖江清水耳鼻咽喉科医院</name>
<address>本町４丁目１－２８</address>
<tel>+81-778-52-8700</tel>
<latitude>35.948422</latitude>
<longitude>136.186014</longitude>
<url>http://www3.city.sabae.fukui.jp/xml/refuge2/#64</url>
</refuge>
<refuge>
<no>65</no>
<areano>1</areano>
<area>鯖江</area>
<typeno>3</typeno>
<type>医療機関</type>
<name>鯖江リハビリテーション病院</name>
<address>旭町４丁目９－１０</address>
<tel>+81-778-51-2755</tel>
<latitude>35.950065</latitude>
<longitude>136.188183</longitude>
<url>http://www3.city.sabae.fukui.jp/xml/refuge2/#65</url>
</refuge>
<refuge>
<no>66</no>
<areano>1</areano>
<area>鯖江</area>
<typeno>3</typeno>
<type>医療機関</type>
<name>高野病院</name>
<address>本町２丁目３－１０</address>
<tel>+81-778-51-0845</tel>
<latitude>35.945568</latitude>
<longitude>136.18381</longitude>
<url>http://www3.city.sabae.fukui.jp/xml/refuge2/#66</url>
</refuge>
<refuge>
<no>67</no>
<areano>1</areano>
<area>鯖江</area>
<typeno>3</typeno>
<type>医療機関</type>
<name>たかはし内科婦人科医院</name>
<address>小黒町３丁目１１－２８</address>
<tel>+81-778-54-0550</tel>
<latitude>35.956358</latitude>
<longitude>136.174052</longitude>
<url>http://www3.city.sabae.fukui.jp/xml/refuge2/#67</url>
</refuge>
<refuge>
<no>68</no>
<areano>1</areano>
<area>鯖江</area>
<typeno>3</typeno>
<type>医療機関</type>
<name>谷川病院</name>
<address>本町４丁目３－１４</address>
<tel>+81-778-51-4132</tel>
<latitude>35.94985</latitude>
<longitude>136.184974</longitude>
<url>http://www3.city.sabae.fukui.jp/xml/refuge2/#68</url>
</refuge>
<refuge>
<no>69</no>
<areano>1</areano>
<area>鯖江</area>
<typeno>3</typeno>
<type>医療機関</type>
<name>土屋医院</name>
<address>旭町３丁目６－２</address>
<tel>+81-778-51-2100</tel>
<latitude>35.946441</latitude>
<longitude>136.186713</longitude>
<url>http://www3.city.sabae.fukui.jp/xml/refuge2/#69</url>
</refuge>
<refuge>
<no>70</no>
<areano>1</areano>
<area>鯖江</area>
<typeno>3</typeno>
<type>医療機関</type>
<name>皮膚科鈴木医院</name>
<address>長泉寺町１丁目８－３６</address>
<tel>+81-778-51-0232</tel>
<latitude>35.951894</latitude>
<longitude>136.186283</longitude>
<url>http://www3.city.sabae.fukui.jp/xml/refuge2/#70</url>
</refuge>
<refuge>
<no>71</no>
<areano>1</areano>
<area>鯖江</area>
<typeno>3</typeno>
<type>医療機関</type>
<name>広瀬病院</name>
<address>旭町１丁目２－８</address>
<tel>+81-778-51-3030</tel>
<latitude>35.943912</latitude>
<longitude>136.187397</longitude>
<url>http://www3.city.sabae.fukui.jp/xml/refuge2/#71</url>
</refuge>
<refuge>
<no>72</no>
<areano>1</areano>
<area>鯖江</area>
<typeno>3</typeno>
<type>医療機関</type>
<name>前田医院</name>
<address>柳町１丁目７－１４</address>
<tel>+81-778-51-0585</tel>
<latitude>35.94619</latitude>
<longitude>136.189532</longitude>
<url>http://www3.city.sabae.fukui.jp/xml/refuge2/#72</url>
</refuge>
<refuge>
<no>73</no>
<areano>1</areano>
<area>鯖江</area>
<typeno>3</typeno>
<type>医療機関</type>
<name>丸山内科循環器科医院</name>
<address>上鯖江２丁目９－５</address>
<tel>+81-778-29-0008</tel>
<latitude>35.935829</latitude>
<longitude>136.178841</longitude>
<url>http://www3.city.sabae.fukui.jp/xml/refuge2/#73</url>
</refuge>
<refuge>
<no>74</no>
<areano>1</areano>
<area>鯖江</area>
<typeno>4</typeno>
<type>災害時要援護者利用施設</type>
<name>グレースフルわかたけ</name>
<address>本町２丁目２－１７</address>
<tel>+81-778-52-7400</tel>
<latitude>35.946218</latitude>
<longitude>136.184794</longitude>
<url>http://www3.city.sabae.fukui.jp/xml/refuge2/#74</url>
</refuge>
<refuge>
<no>75</no>
<areano>1</areano>
<area>鯖江</area>
<typeno>4</typeno>
<type>災害時要援護者利用施設</type>
<name>グループホームさばえ</name>
<address>旭町４丁目３－１９</address>
<tel>+81-778-51-6171</tel>
<latitude>35.94919</latitude>
<longitude>136.187148</longitude>
<url>http://www3.city.sabae.fukui.jp/xml/refuge2/#75</url>
</refuge>
<refuge>
<no>76</no>
<areano>1</areano>
<area>鯖江</area>
<typeno>4</typeno>
<type>災害時要援護者利用施設</type>
<name>陽だまりさばえ</name>
<address>旭町４丁目４－１３</address>
<tel>+81-778-51-0112</tel>
<latitude>35.94914</latitude>
<longitude>136.186575</longitude>
<url>http://www3.city.sabae.fukui.jp/xml/refuge2/#76</url>
</refuge>
<refuge>
<no>77</no>
<areano>1</areano>
<area>鯖江</area>
<typeno>4</typeno>
<type>災害時要援護者利用施設</type>
<name>やなぎ保育園</name>
<address>柳町４丁目２－１７</address>
<tel>+81-778-51-0012</tel>
<latitude>35.948401</latitude>
<longitude>136.192049</longitude>
<url>http://www3.city.sabae.fukui.jp/xml/refuge2/#77</url>
</refuge>
<refuge>
<no>78</no>
<areano>1</areano>
<area>鯖江</area>
<typeno>4</typeno>
<type>災害時要援護者利用施設</type>
<name>すみれ保育園</name>
<address>住吉町１丁目１４－１４</address>
<tel>+81-778-51-4144</tel>
<latitude>35.941113</latitude>
<longitude>136.181923</longitude>
<url>http://www3.city.sabae.fukui.jp/xml/refuge2/#78</url>
</refuge>
<refuge>
<no>79</no>
<areano>1</areano>
<area>鯖江</area>
<typeno>4</typeno>
<type>災害時要援護者利用施設</type>
<name>老健・温浴リハビリセンター王山</name>
<address>日の出町１０－２</address>
<tel>+81-778-51-7720</tel>
<latitude>35.942743</latitude>
<longitude>136.1874</longitude>
<url>http://www3.city.sabae.fukui.jp/xml/refuge2/#79</url>
</refuge>
<refuge>
<no>80</no>
<areano>1</areano>
<area>鯖江</area>
<typeno>4</typeno>
<type>災害時要援護者利用施設</type>
<name>デイケアさばえ</name>
<address>旭町４丁目９－１０</address>
<tel>+81-778-51-0126</tel>
<latitude>35.949889</latitude>
<longitude>136.188309</longitude>
<url>http://www3.city.sabae.fukui.jp/xml/refuge2/#80</url>
</refuge>
<refuge>
<no>81</no>
<areano>2</areano>
<area>新横江</area>
<typeno>1</typeno>
<type>避難所</type>
<name>鯖江東小学校</name>
<address>新横江２丁目６－３７</address>
<tel>+81-778-51-0338</tel>
<latitude>35.939604</latitude>
<longitude>136.198778</longitude>
<url>http://www3.city.sabae.fukui.jp/xml/refuge2/#81</url>
</refuge>
<refuge>
<no>82</no>
<areano>2</areano>
<area>新横江</area>
<typeno>1</typeno>
<type>避難所</type>
<name>鯖江東幼稚園</name>
<address>新横江２丁目６－３７</address>
<tel>+81-778-52-5696</tel>
<latitude>35.9394</latitude>
<longitude>136.198456</longitude>
<url>http://www3.city.sabae.fukui.jp/xml/refuge2/#82</url>
</refuge>
<refuge>
<no>83</no>
<areano>2</areano>
<area>新横江</area>
<typeno>1</typeno>
<type>避難所</type>
<name>新横江公民館</name>
<address>横越町１－４３－２</address>
<tel>+81-778-51-2969</tel>
<latitude>35.942024</latitude>
<longitude>136.200731</longitude>
<url>http://www3.city.sabae.fukui.jp/xml/refuge2/#83</url>
</refuge>
<refuge>
<no>84</no>
<areano>2</areano>
<area>新横江</area>
<typeno>1</typeno>
<type>避難所</type>
<name>いきいき未来館</name>
<address>定次町１０８</address>
<tel>+81-778-51-1450</tel>
<latitude>35.938589</latitude>
<longitude>136.198078</longitude>
<url>http://www3.city.sabae.fukui.jp/xml/refuge2/#84</url>
</refuge>
<refuge>
<no>85</no>
<areano>2</areano>
<area>新横江</area>
<typeno>1</typeno>
<type>避難所</type>
<name>新横江児童センター</name>
<address>定次町１０８</address>
<tel>+81-778-51-1450</tel>
<latitude>35.938589</latitude>
<longitude>136.198078</longitude>
<url>http://www3.city.sabae.fukui.jp/xml/refuge2/#85</url>
</refuge>
<refuge>
<no>86</no>
<areano>2</areano>
<area>新横江</area>
<typeno>1</typeno>
<type>避難所</type>
<name>文化センター</name>
<address>東鯖江３丁目７－１</address>
<tel>+81-778-52-7430</tel>
<latitude>35.943479</latitude>
<longitude>136.199012</longitude>
<url>http://www3.city.sabae.fukui.jp/xml/refuge2/#86</url>
</refuge>
<refuge>
<no>87</no>
<areano>2</areano>
<area>新横江</area>
<typeno>1</typeno>
<type>避難所</type>
<name>総合体育館</name>
<address>東鯖江３丁目６－１０</address>
<tel>+81-778-51-3176</tel>
<latitude>35.971373</latitude>
<longitude>136.165504</longitude>
<url>http://www3.city.sabae.fukui.jp/xml/refuge2/#87</url>
</refuge>
<refuge>
<no>88</no>
<areano>2</areano>
<area>新横江</area>
<typeno>1</typeno>
<type>避難所</type>
<name>東公園</name>
<address>東鯖江３丁目</address>
<latitude>35.941814</latitude>
<longitude>136.200709</longitude>
<url>http://www3.city.sabae.fukui.jp/xml/refuge2/#88</url>
</refuge>
<refuge>
<no>89</no>
<areano>2</areano>
<area>新横江</area>
<typeno>2</typeno>
<type>一時避難場所</type>
<name>横越町八幡神社</name>
<address>横越町</address>
<latitude>35.948494</latitude>
<longitude>136.201765</longitude>
<url>http://www3.city.sabae.fukui.jp/xml/refuge2/#89</url>
</refuge>
<refuge>
<no>90</no>
<areano>2</areano>
<area>新横江</area>
<typeno>2</typeno>
<type>一時避難場所</type>
<name>新町公民館</name>
<address>新町</address>
<latitude>35.941148</latitude>
<longitude>136.206886</longitude>
<url>http://www3.city.sabae.fukui.jp/xml/refuge2/#90</url>
</refuge>
<refuge>
<no>91</no>
<areano>2</areano>
<area>新横江</area>
<typeno>2</typeno>
<type>一時避難場所</type>
<name>市営住宅新町団地</name>
<address>新町（市住・新住）</address>
<latitude>35.941274</latitude>
<longitude>136.202832</longitude>
<url>http://www3.city.sabae.fukui.jp/xml/refuge2/#91</url>
</refuge>
<refuge>
<no>92</no>
<areano>2</areano>
<area>新横江</area>
<typeno>2</typeno>
<type>一時避難場所</type>
<name>下新庄町公民館</name>
<address>下新庄町</address>
<latitude>35.93537</latitude>
<longitude>136.209672</longitude>
<url>http://www3.city.sabae.fukui.jp/xml/refuge2/#92</url>
</refuge>
<refuge>
<no>93</no>
<areano>2</areano>
<area>新横江</area>
<typeno>2</typeno>
<type>一時避難場所</type>
<name>小丸山広場</name>
<address>下新庄町</address>
<latitude>35.931357</latitude>
<longitude>136.212172</longitude>
<url>http://www3.city.sabae.fukui.jp/xml/refuge2/#93</url>
</refuge>
<refuge>
<no>94</no>
<areano>2</areano>
<area>新横江</area>
<typeno>2</typeno>
<type>一時避難場所</type>
<name>定次公園</name>
<address>定次町</address>
<latitude>35.936856</latitude>
<longitude>136.199426</longitude>
<url>http://www3.city.sabae.fukui.jp/xml/refuge2/#94</url>
</refuge>
<refuge>
<no>95</no>
<areano>2</areano>
<area>新横江</area>
<typeno>2</typeno>
<type>一時避難場所</type>
<name>五郎丸第２公園</name>
<address>五郎丸町</address>
<latitude>35.934224</latitude>
<longitude>136.1908</longitude>
<url>http://www3.city.sabae.fukui.jp/xml/refuge2/#95</url>
</refuge>
<refuge>
<no>96</no>
<areano>2</areano>
<area>新横江</area>
<typeno>2</typeno>
<type>一時避難場所</type>
<name>鯖江東小学校</name>
<address>新横江１・２丁目</address>
<latitude>35.939604</latitude>
<longitude>136.198778</longitude>
<url>http://www3.city.sabae.fukui.jp/xml/refuge2/#96</url>
</refuge>
<refuge>
<no>97</no>
<areano>2</areano>
<area>新横江</area>
<typeno>2</typeno>
<type>一時避難場所</type>
<name>文化センター前駐車場</name>
<address>東鯖江１・３丁目</address>
<latitude>35.943345</latitude>
<longitude>136.19753</longitude>
<url>http://www3.city.sabae.fukui.jp/xml/refuge2/#97</url>
</refuge>
<refuge>
<no>98</no>
<areano>2</areano>
<area>新横江</area>
<typeno>2</typeno>
<type>一時避難場所</type>
<name>東鯖江第２公園</name>
<address>東鯖江２・４丁目</address>
<latitude>35.948344</latitude>
<longitude>136.1947</longitude>
<url>http://www3.city.sabae.fukui.jp/xml/refuge2/#98</url>
</refuge>
<refuge>
<no>99</no>
<areano>2</areano>
<area>新横江</area>
<typeno>2</typeno>
<type>一時避難場所</type>
<name>市営住宅定次団地駐車場</name>
<address>定次団地</address>
<latitude>35.933087</latitude>
<longitude>136.194252</longitude>
<url>http://www3.city.sabae.fukui.jp/xml/refuge2/#99</url>
</refuge>
<refuge>
<no>100</no>
<areano>2</areano>
<area>新横江</area>
<typeno>3</typeno>
<type>医療機関</type>
<name>いしだ皮膚科クリニック</name>
<address>東鯖江１丁目３－１５</address>
<tel>+81-778-53-0753</tel>
<latitude>35.94612</latitude>
<longitude>136.19633</longitude>
<url>http://www3.city.sabae.fukui.jp/xml/refuge2/#100</url>
</refuge>
<refuge>
<no>101</no>
<areano>2</areano>
<area>新横江</area>
<typeno>3</typeno>
<type>医療機関</type>
<name>産婦人科鈴木クリニック</name>
<address>東鯖江４丁目２－２３</address>
<tel>+81-778-52-6000</tel>
<latitude>35.948002</latitude>
<longitude>136.197972</longitude>
<url>http://www3.city.sabae.fukui.jp/xml/refuge2/#101</url>
</refuge>
<refuge>
<no>102</no>
<areano>2</areano>
<area>新横江</area>
<typeno>3</typeno>
<type>医療機関</type>
<name>嶋田整形外科医院</name>
<address>五郎丸町２５３</address>
<tel>+81-778-54-0500</tel>
<latitude>35.933341</latitude>
<longitude>136.190747</longitude>
<url>http://www3.city.sabae.fukui.jp/xml/refuge2/#102</url>
</refuge>
<refuge>
<no>103</no>
<areano>2</areano>
<area>新横江</area>
<typeno>4</typeno>
<type>災害時要援護者利用施設</type>
<name>新横江保育園</name>
<address>新横江１丁目３－１３</address>
<tel>+81-778-52-3883</tel>
<latitude>35.941849</latitude>
<longitude>136.195942</longitude>
<url>http://www3.city.sabae.fukui.jp/xml/refuge2/#103</url>
</refuge>
<refuge>
<no>104</no>
<areano>3</areano>
<area>神明</area>
<typeno>1</typeno>
<type>避難所</type>
<name>神明小学校</name>
<address>水落町４丁目１３－２３</address>
<tel>+81-778-51-1110</tel>
<latitude>35.970339</latitude>
<longitude>136.184455</longitude>
<url>http://www3.city.sabae.fukui.jp/xml/refuge2/#104</url>
</refuge>
<refuge>
<no>105</no>
<areano>3</areano>
<area>神明</area>
<typeno>1</typeno>
<type>避難所</type>
<name>鳥羽小学校</name>
<address>神明町４丁目１－３８</address>
<tel>+81-778-52-0045</tel>
<latitude>35.979303</latitude>
<longitude>136.187909</longitude>
<url>http://www3.city.sabae.fukui.jp/xml/refuge2/#105</url>
</refuge>
<refuge>
<no>106</no>
<areano>3</areano>
<area>神明</area>
<typeno>1</typeno>
<type>避難所</type>
<name>中央中学校</name>
<address>三六町１丁目１－５０</address>
<tel>+81-778-51-1161</tel>
<latitude>35.96949</latitude>
<longitude>136.180165</longitude>
<url>http://www3.city.sabae.fukui.jp/xml/refuge2/#106</url>
</refuge>
<refuge>
<no>107</no>
<areano>3</areano>
<area>神明</area>
<typeno>1</typeno>
<type>避難所</type>
<name>神明幼稚園</name>
<address>三六町１丁目８－２４</address>
<tel>+81-778-51-1002</tel>
<latitude>35.971843</latitude>
<longitude>136.178422</longitude>
<url>http://www3.city.sabae.fukui.jp/xml/refuge2/#107</url>
</refuge>
<refuge>
<no>108</no>
<areano>3</areano>
<area>神明</area>
<typeno>1</typeno>
<type>避難所</type>
<name>神明公民館</name>
<address>三六町１丁目４－１２</address>
<tel>+81-778-51-5065</tel>
<latitude>35.970727</latitude>
<longitude>136.178959</longitude>
<url>http://www3.city.sabae.fukui.jp/xml/refuge2/#108</url>
</refuge>
<refuge>
<no>109</no>
<areano>3</areano>
<area>神明</area>
<typeno>1</typeno>
<type>避難所</type>
<name>神明保育所</name>
<address>三六町１丁目１－１２</address>
<tel>+81-778-51-1137</tel>
<latitude>35.968335</latitude>
<longitude>136.178814</longitude>
<url>http://www3.city.sabae.fukui.jp/xml/refuge2/#109</url>
</refuge>
<refuge>
<no>110</no>
<areano>3</areano>
<area>神明</area>
<typeno>1</typeno>
<type>避難所</type>
<name>神明苑</name>
<address>神明町２丁目８－４</address>
<tel>+81-778-52-5165</tel>
<latitude>35.972495</latitude>
<longitude>136.183083</longitude>
<url>http://www3.city.sabae.fukui.jp/xml/refuge2/#110</url>
</refuge>
<refuge>
<no>111</no>
<areano>3</areano>
<area>神明</area>
<typeno>1</typeno>
<type>避難所</type>
<name>夢みらい館・さばえ</name>
<address>三六町１丁目４－２０</address>
<tel>+81-778-51-1722</tel>
<latitude>35.970718</latitude>
<longitude>136.17933</longitude>
<url>http://www3.city.sabae.fukui.jp/xml/refuge2/#111</url>
</refuge>
<refuge>
<no>112</no>
<areano>3</areano>
<area>神明</area>
<typeno>1</typeno>
<type>避難所</type>
<name>水落児童館</name>
<address>水落町１丁目８－２２</address>
<tel>+81-778-52-3561</tel>
<latitude>35.959049</latitude>
<longitude>136.18176</longitude>
<url>http://www3.city.sabae.fukui.jp/xml/refuge2/#112</url>
</refuge>
<refuge>
<no>113</no>
<areano>3</areano>
<area>神明</area>
<typeno>1</typeno>
<type>避難所</type>
<name>鳥羽中児童センター</name>
<address>神明町４丁目７－５５</address>
<tel>+81-778-52-5920</tel>
<latitude>35.979438</latitude>
<longitude>136.185448</longitude>
<url>http://www3.city.sabae.fukui.jp/xml/refuge2/#113</url>
</refuge>
<refuge>
<no>114</no>
<areano>3</areano>
<area>神明</area>
<typeno>1</typeno>
<type>避難所</type>
<name>神中児童センター</name>
<address>神中町３丁目５－３１</address>
<tel>+81-778-52-8909</tel>
<latitude>35.975332</latitude>
<longitude>136.187045</longitude>
<url>http://www3.city.sabae.fukui.jp/xml/refuge2/#114</url>
</refuge>
<refuge>
<no>115</no>
<areano>3</areano>
<area>神明</area>
<typeno>1</typeno>
<type>避難所</type>
<name>健康福祉センター（アイアイさばえ）</name>
<address>水落町２丁目３０－１</address>
<tel>+81-778-52-1121</tel>
<latitude>35.961599</latitude>
<longitude>136.187807</longitude>
<url>http://www3.city.sabae.fukui.jp/xml/refuge2/#115</url>
</refuge>
<refuge>
<no>116</no>
<areano>3</areano>
<area>神明</area>
<typeno>1</typeno>
<type>避難所</type>
<name>神明健康スポーツセンター</name>
<address>北野町１６－７</address>
<tel>+81-778-51-7380</tel>
<latitude>35.968747</latitude>
<longitude>136.174388</longitude>
<url>http://www3.city.sabae.fukui.jp/xml/refuge2/#116</url>
</refuge>
<refuge>
<no>117</no>
<areano>3</areano>
<area>神明</area>
<typeno>1</typeno>
<type>避難所</type>
<name>勤労青少年ホーム</name>
<address>水落町２丁目２４－２</address>
<tel>+81-778-52-5988</tel>
<latitude>35.959876</latitude>
<longitude>136.186872</longitude>
<url>http://www3.city.sabae.fukui.jp/xml/refuge2/#117</url>
</refuge>
<refuge>
<no>118</no>
<areano>3</areano>
<area>神明</area>
<typeno>1</typeno>
<type>避難所</type>
<name>青年会館</name>
<address>水落町２丁目２４－３１</address>
<latitude>35.96035</latitude>
<longitude>136.186915</longitude>
<url>http://www3.city.sabae.fukui.jp/xml/refuge2/#118</url>
</refuge>
<refuge>
<no>119</no>
<areano>3</areano>
<area>神明</area>
<typeno>1</typeno>
<type>避難所</type>
<name>文化の館</name>
<address>水落町２丁目２５－２８</address>
<tel>+81-778-52-0089</tel>
<latitude>35.961991</latitude>
<longitude>136.186513</longitude>
<url>http://www3.city.sabae.fukui.jp/xml/refuge2/#119</url>
</refuge>
<refuge>
<no>120</no>
<areano>3</areano>
<area>神明</area>
<typeno>1</typeno>
<type>避難所</type>
<name>三六武道館</name>
<address>三六町２丁目２－４０</address>
<tel>+81-778-52-8919</tel>
<latitude>35.97346</latitude>
<longitude>136.180379</longitude>
<url>http://www3.city.sabae.fukui.jp/xml/refuge2/#120</url>
</refuge>
<refuge>
<no>121</no>
<areano>3</areano>
<area>神明</area>
<typeno>1</typeno>
<type>避難所</type>
<name>ゲートボールセンター</name>
<address>水落町２丁目２５－１０</address>
<tel>+81-778-51-8363</tel>
<latitude>35.961887</latitude>
<longitude>136.185749</longitude>
<url>http://www3.city.sabae.fukui.jp/xml/refuge2/#121</url>
</refuge>
<refuge>
<no>122</no>
<areano>3</areano>
<area>神明</area>
<typeno>1</typeno>
<type>避難所</type>
<name>丸山公園</name>
<address>丸山町</address>
<latitude>35.983957</latitude>
<longitude>136.179277</longitude>
<url>http://www3.city.sabae.fukui.jp/xml/refuge2/#122</url>
</refuge>
<refuge>
<no>123</no>
<areano>3</areano>
<area>神明</area>
<typeno>1</typeno>
<type>避難所</type>
<name>神中公園</name>
<address>神中町</address>
<latitude>35.975823</latitude>
<longitude>136.188497</longitude>
<url>http://www3.city.sabae.fukui.jp/xml/refuge2/#123</url>
</refuge>
<refuge>
<no>124</no>
<areano>3</areano>
<area>神明</area>
<typeno>1</typeno>
<type>避難所</type>
<name>御幸公園</name>
<address>御幸町</address>
<latitude>35.977004</latitude>
<longitude>136.188754</longitude>
<url>http://www3.city.sabae.fukui.jp/xml/refuge2/#124</url>
</refuge>
<refuge>
<no>125</no>
<areano>3</areano>
<area>神明</area>
<typeno>2</typeno>
<type>一時避難場所</type>
<name>西山公園野球場</name>
<address>水落町１丁目</address>
<latitude>35.960065</latitude>
<longitude>136.181292</longitude>
<url>http://www3.city.sabae.fukui.jp/xml/refuge2/#125</url>
</refuge>
<refuge>
<no>126</no>
<areano>3</areano>
<area>神明</area>
<typeno>2</typeno>
<type>一時避難場所</type>
<name>水落北公園</name>
<address>水落町１丁目</address>
<latitude>35.962702</latitude>
<longitude>136.176699</longitude>
<url>http://www3.city.sabae.fukui.jp/xml/refuge2/#126</url>
</refuge>
<refuge>
<no>127</no>
<areano>3</areano>
<area>神明</area>
<typeno>2</typeno>
<type>一時避難場所</type>
<name>水落東第１公園</name>
<address>水落町２丁目（６～１２班）</address>
<latitude>35.964289</latitude>
<longitude>136.184961</longitude>
<url>http://www3.city.sabae.fukui.jp/xml/refuge2/#127</url>
</refuge>
<refuge>
<no>128</no>
<areano>3</areano>
<area>神明</area>
<typeno>2</typeno>
<type>一時避難場所</type>
<name>水落東第２公園</name>
<address>水落町２丁目（１～５班）</address>
<latitude>35.960012</latitude>
<longitude>136.186243</longitude>
<url>http://www3.city.sabae.fukui.jp/xml/refuge2/#128</url>
</refuge>
<refuge>
<no>129</no>
<areano>3</areano>
<area>神明</area>
<typeno>2</typeno>
<type>一時避難場所</type>
<name>神明東第４公園</name>
<address>水落町３丁目</address>
<latitude>35.967217</latitude>
<longitude>136.184915</longitude>
<url>http://www3.city.sabae.fukui.jp/xml/refuge2/#129</url>
</refuge>
<refuge>
<no>130</no>
<areano>3</areano>
<area>神明</area>
<typeno>2</typeno>
<type>一時避難場所</type>
<name>烏ヶ森公民館</name>
<address>水落町４丁目</address>
<latitude>35.969149</latitude>
<longitude>136.182699</longitude>
<url>http://www3.city.sabae.fukui.jp/xml/refuge2/#130</url>
</refuge>
<refuge>
<no>131</no>
<areano>3</areano>
<area>神明</area>
<typeno>2</typeno>
<type>一時避難場所</type>
<name>北野第１公園</name>
<address>北野町１丁目</address>
<latitude>35.962819</latitude>
<longitude>136.179674</longitude>
<url>http://www3.city.sabae.fukui.jp/xml/refuge2/#131</url>
</refuge>
<refuge>
<no>132</no>
<areano>3</areano>
<area>神明</area>
<typeno>2</typeno>
<type>一時避難場所</type>
<name>福井めがね第２駐車場</name>
<address>北野町２丁目</address>
<latitude>35.966544</latitude>
<longitude>136.178971</longitude>
<url>http://www3.city.sabae.fukui.jp/xml/refuge2/#132</url>
</refuge>
<refuge>
<no>133</no>
<areano>3</areano>
<area>神明</area>
<typeno>2</typeno>
<type>一時避難場所</type>
<name>三六公園</name>
<address>神明町１丁目</address>
<latitude>35.970898</latitude>
<longitude>136.180291</longitude>
<url>http://www3.city.sabae.fukui.jp/xml/refuge2/#133</url>
</refuge>
<refuge>
<no>134</no>
<areano>3</areano>
<area>神明</area>
<typeno>2</typeno>
<type>一時避難場所</type>
<name>神明町八幡神社</name>
<address>神明町２丁目</address>
<latitude>35.974424</latitude>
<longitude>136.18279</longitude>
<url>http://www3.city.sabae.fukui.jp/xml/refuge2/#134</url>
</refuge>
<refuge>
<no>135</no>
<areano>3</areano>
<area>神明</area>
<typeno>2</typeno>
<type>一時避難場所</type>
<name>神明東第１公園</name>
<address>神明町２丁目</address>
<latitude>35.974406</latitude>
<longitude>136.18352</longitude>
<url>http://www3.city.sabae.fukui.jp/xml/refuge2/#135</url>
</refuge>
<refuge>
<no>136</no>
<areano>3</areano>
<area>神明</area>
<typeno>2</typeno>
<type>一時避難場所</type>
<name>琵琶神社</name>
<address>神明町３・４丁目</address>
<latitude>35.978834</latitude>
<longitude>136.183209</longitude>
<url>http://www3.city.sabae.fukui.jp/xml/refuge2/#136</url>
</refuge>
<refuge>
<no>137</no>
<areano>3</areano>
<area>神明</area>
<typeno>2</typeno>
<type>一時避難場所</type>
<name>鳥羽中児童センター</name>
<address>神明町４・５丁目</address>
<tel>+81-778-52-5920</tel>
<latitude>35.979403</latitude>
<longitude>136.185473</longitude>
<url>http://www3.city.sabae.fukui.jp/xml/refuge2/#137</url>
</refuge>
<refuge>
<no>138</no>
<areano>3</areano>
<area>神明</area>
<typeno>2</typeno>
<type>一時避難場所</type>
<name>三ヶ月地蔵</name>
<address>神明町４・５丁目</address>
<latitude>35.982142</latitude>
<longitude>136.187088</longitude>
<url>http://www3.city.sabae.fukui.jp/xml/refuge2/#138</url>
</refuge>
<refuge>
<no>139</no>
<areano>3</areano>
<area>神明</area>
<typeno>2</typeno>
<type>一時避難場所</type>
<name>神明公民館</name>
<address>三六町１丁目</address>
<tel>+81-778-51-5065</tel>
<latitude>35.970727</latitude>
<longitude>136.178959</longitude>
<url>http://www3.city.sabae.fukui.jp/xml/refuge2/#139</url>
</refuge>
<refuge>
<no>140</no>
<areano>3</areano>
<area>神明</area>
<typeno>2</typeno>
<type>一時避難場所</type>
<name>三六武道館</name>
<address>幸町１丁目</address>
<tel>+81-778-52-8919</tel>
<latitude>35.97346</latitude>
<longitude>136.180379</longitude>
<url>http://www3.city.sabae.fukui.jp/xml/refuge2/#140</url>
</refuge>
<refuge>
<no>141</no>
<areano>3</areano>
<area>神明</area>
<typeno>2</typeno>
<type>一時避難場所</type>
<name>まとい寿司</name>
<address>幸町２丁目</address>
<latitude>35.976369</latitude>
<longitude>136.181439</longitude>
<url>http://www3.city.sabae.fukui.jp/xml/refuge2/#141</url>
</refuge>
<refuge>
<no>142</no>
<areano>3</areano>
<area>神明</area>
<typeno>2</typeno>
<type>一時避難場所</type>
<name>田所町ふれあい会館</name>
<address>田所町</address>
<tel>+81-778-54-0341</tel>
<latitude>35.977749</latitude>
<longitude>136.178703</longitude>
<url>http://www3.city.sabae.fukui.jp/xml/refuge2/#142</url>
</refuge>
<refuge>
<no>143</no>
<areano>3</areano>
<area>神明</area>
<typeno>2</typeno>
<type>一時避難場所</type>
<name>北部第２公園</name>
<address>丸山町１丁目</address>
<latitude>35.97952</latitude>
<longitude>136.181203</longitude>
<url>http://www3.city.sabae.fukui.jp/xml/refuge2/#143</url>
</refuge>
<refuge>
<no>144</no>
<areano>3</areano>
<area>神明</area>
<typeno>2</typeno>
<type>一時避難場所</type>
<name>北部第１公園</name>
<address>丸山町２丁目</address>
<latitude>35.982863</latitude>
<longitude>136.182007</longitude>
<url>http://www3.city.sabae.fukui.jp/xml/refuge2/#144</url>
</refuge>
<refuge>
<no>145</no>
<areano>3</areano>
<area>神明</area>
<typeno>2</typeno>
<type>一時避難場所</type>
<name>丸山公園</name>
<address>丸山町３・４丁目</address>
<latitude>35.983957</latitude>
<longitude>136.179277</longitude>
<url>http://www3.city.sabae.fukui.jp/xml/refuge2/#145</url>
</refuge>
<refuge>
<no>146</no>
<areano>3</areano>
<area>神明</area>
<typeno>2</typeno>
<type>一時避難場所</type>
<name>西鳥羽集落センター</name>
<address>鳥羽１・２丁目</address>
<tel>+81-778-53-0554</tel>
<latitude>35.98515</latitude>
<longitude>136.187742</longitude>
<url>http://www3.city.sabae.fukui.jp/xml/refuge2/#146</url>
</refuge>
<refuge>
<no>147</no>
<areano>3</areano>
<area>神明</area>
<typeno>2</typeno>
<type>一時避難場所</type>
<name>鳥羽公園</name>
<address>鳥羽１・２丁目</address>
<latitude>35.986531</latitude>
<longitude>136.19113</longitude>
<url>http://www3.city.sabae.fukui.jp/xml/refuge2/#147</url>
</refuge>
<refuge>
<no>148</no>
<areano>3</areano>
<area>神明</area>
<typeno>2</typeno>
<type>一時避難場所</type>
<name>江尻町公園</name>
<address>鳥羽１・２丁目</address>
<latitude>35.987858</latitude>
<longitude>136.188725</longitude>
<url>http://www3.city.sabae.fukui.jp/xml/refuge2/#148</url>
</refuge>
<refuge>
<no>149</no>
<areano>3</areano>
<area>神明</area>
<typeno>2</typeno>
<type>一時避難場所</type>
<name>鳥羽団地公園</name>
<address>鳥羽３丁目</address>
<latitude>35.988498</latitude>
<longitude>136.186432</longitude>
<url>http://www3.city.sabae.fukui.jp/xml/refuge2/#149</url>
</refuge>
<refuge>
<no>150</no>
<areano>3</areano>
<area>神明</area>
<typeno>2</typeno>
<type>一時避難場所</type>
<name>つつじヶ丘第２公園</name>
<address>鳥羽３丁目・つつじヶ丘町</address>
<latitude>35.987045</latitude>
<longitude>136.184022</longitude>
<url>http://www3.city.sabae.fukui.jp/xml/refuge2/#150</url>
</refuge>
<refuge>
<no>151</no>
<areano>3</areano>
<area>神明</area>
<typeno>2</typeno>
<type>一時避難場所</type>
<name>東鳥羽集集落センター</name>
<address>東鳥羽</address>
<latitude>35.985676</latitude>
<longitude>136.20052</longitude>
<url>http://www3.city.sabae.fukui.jp/xml/refuge2/#151</url>
</refuge>
<refuge>
<no>152</no>
<areano>3</areano>
<area>神明</area>
<typeno>2</typeno>
<type>一時避難場所</type>
<name>つつじヶ丘町公民館公園</name>
<address>つつじヶ丘町</address>
<tel>+81-778-52-1991</tel>
<latitude>35.988323</latitude>
<longitude>136.183681</longitude>
<url>http://www3.city.sabae.fukui.jp/xml/refuge2/#152</url>
</refuge>
<refuge>
<no>153</no>
<areano>3</areano>
<area>神明</area>
<typeno>2</typeno>
<type>一時避難場所</type>
<name>神中第１公園</name>
<address>神中町１丁目</address>
<latitude>35.971079</latitude>
<longitude>136.197688</longitude>
<url>http://www3.city.sabae.fukui.jp/xml/refuge2/#153</url>
</refuge>
<refuge>
<no>154</no>
<areano>3</areano>
<area>神明</area>
<typeno>2</typeno>
<type>一時避難場所</type>
<name>神中公園</name>
<address>神中町２・３丁目</address>
<latitude>35.975823</latitude>
<longitude>136.188497</longitude>
<url>http://www3.city.sabae.fukui.jp/xml/refuge2/#154</url>
</refuge>
<refuge>
<no>155</no>
<areano>3</areano>
<area>神明</area>
<typeno>2</typeno>
<type>一時避難場所</type>
<name>御幸第２公園</name>
<address>御幸町１・３丁目・鳥羽町</address>
<latitude>35.97886</latitude>
<longitude>136.193898</longitude>
<url>http://www3.city.sabae.fukui.jp/xml/refuge2/#155</url>
</refuge>
<refuge>
<no>156</no>
<areano>3</areano>
<area>神明</area>
<typeno>2</typeno>
<type>一時避難場所</type>
<name>御幸第３公園</name>
<address>御幸町２丁目</address>
<latitude>35.978031</latitude>
<longitude>136.191296</longitude>
<url>http://www3.city.sabae.fukui.jp/xml/refuge2/#156</url>
</refuge>
<refuge>
<no>157</no>
<areano>3</areano>
<area>神明</area>
<typeno>2</typeno>
<type>一時避難場所</type>
<name>御幸第４公園</name>
<address>御幸町２丁目</address>
<latitude>35.976191</latitude>
<longitude>136.193109</longitude>
<url>http://www3.city.sabae.fukui.jp/xml/refuge2/#157</url>
</refuge>
<refuge>
<no>158</no>
<areano>3</areano>
<area>神明</area>
<typeno>2</typeno>
<type>一時避難場所</type>
<name>御幸公園</name>
<address>御幸町４丁目</address>
<latitude>35.977004</latitude>
<longitude>136.188754</longitude>
<url>http://www3.city.sabae.fukui.jp/xml/refuge2/#158</url>
</refuge>
<refuge>
<no>159</no>
<areano>3</areano>
<area>神明</area>
<typeno>2</typeno>
<type>一時避難場所</type>
<name>みどり公園</name>
<address>みどり町内会</address>
<latitude>35.973212</latitude>
<longitude>136.174285</longitude>
<url>http://www3.city.sabae.fukui.jp/xml/refuge2/#159</url>
</refuge>
<refuge>
<no>160</no>
<areano>3</areano>
<area>神明</area>
<typeno>2</typeno>
<type>一時避難場所</type>
<name>共栄公園</name>
<address>東米岡１丁目</address>
<latitude>35.984434</latitude>
<longitude>136.184869</longitude>
<url>http://www3.city.sabae.fukui.jp/xml/refuge2/#160</url>
</refuge>
<refuge>
<no>161</no>
<areano>3</areano>
<area>神明</area>
<typeno>3</typeno>
<type>医療機関</type>
<name>伊与整形外科</name>
<address>幸町２丁目５－３</address>
<tel>+81-778-51-6300</tel>
<latitude>35.977449</latitude>
<longitude>136.181612</longitude>
<url>http://www3.city.sabae.fukui.jp/xml/refuge2/#161</url>
</refuge>
<refuge>
<no>162</no>
<areano>3</areano>
<area>神明</area>
<typeno>3</typeno>
<type>医療機関</type>
<name>加藤産婦人科</name>
<address>水落町１丁目４－２１</address>
<tel>+81-778-51-1285</tel>
<latitude>35.961849</latitude>
<longitude>136.181978</longitude>
<url>http://www3.city.sabae.fukui.jp/xml/refuge2/#162</url>
</refuge>
<refuge>
<no>163</no>
<areano>3</areano>
<area>神明</area>
<typeno>3</typeno>
<type>医療機関</type>
<name>くぼたクリニック</name>
<address>糺町３０－２－１</address>
<tel>+81-778-53-2511</tel>
<latitude>35.972525</latitude>
<longitude>136.174696</longitude>
<url>http://www3.city.sabae.fukui.jp/xml/refuge2/#163</url>
</refuge>
<refuge>
<no>164</no>
<areano>3</areano>
<area>神明</area>
<typeno>3</typeno>
<type>医療機関</type>
<name>幸道眼科</name>
<address>幸町１丁目４－８</address>
<tel>+81-778-54-0088</tel>
<latitude>35.974697</latitude>
<longitude>136.181128</longitude>
<url>http://www3.city.sabae.fukui.jp/xml/refuge2/#164</url>
</refuge>
<refuge>
<no>165</no>
<areano>3</areano>
<area>神明</area>
<typeno>3</typeno>
<type>医療機関</type>
<name>公立丹南病院</name>
<address>三六町１丁目２－３１</address>
<tel>+81-778-51-2260</tel>
<latitude>35.969604</latitude>
<longitude>136.178078</longitude>
<url>http://www3.city.sabae.fukui.jp/xml/refuge2/#165</url>
</refuge>
<refuge>
<no>166</no>
<areano>3</areano>
<area>神明</area>
<typeno>3</typeno>
<type>医療機関</type>
<name>今野内科</name>
<address>幸町１丁目２－１２</address>
<tel>+81-778-51-1018</tel>
<latitude>35.973843</latitude>
<longitude>136.181043</longitude>
<url>http://www3.city.sabae.fukui.jp/xml/refuge2/#166</url>
</refuge>
<refuge>
<no>167</no>
<areano>3</areano>
<area>神明</area>
<typeno>3</typeno>
<type>医療機関</type>
<name>高村病院</name>
<address>幸町１丁目２－２</address>
<tel>+81-778-51-2030</tel>
<latitude>35.973036</latitude>
<longitude>136.181054</longitude>
<url>http://www3.city.sabae.fukui.jp/xml/refuge2/#167</url>
</refuge>
<refuge>
<no>168</no>
<areano>3</areano>
<area>神明</area>
<typeno>3</typeno>
<type>医療機関</type>
<name>野尻内科胃腸科医院</name>
<address>鳥羽２丁目４－１６</address>
<tel>+81-778-51-1460</tel>
<latitude>35.988806</latitude>
<longitude>136.188398</longitude>
<url>http://www3.city.sabae.fukui.jp/xml/refuge2/#168</url>
</refuge>
<refuge>
<no>169</no>
<areano>3</areano>
<area>神明</area>
<typeno>3</typeno>
<type>医療機関</type>
<name>はやしクリニック</name>
<address>水落町２丁目２６－２８</address>
<tel>+81-778-25-1884</tel>
<latitude>35.963299</latitude>
<longitude>136.187204</longitude>
<url>http://www3.city.sabae.fukui.jp/xml/refuge2/#169</url>
</refuge>
<refuge>
<no>170</no>
<areano>3</areano>
<area>神明</area>
<typeno>3</typeno>
<type>医療機関</type>
<name>藤田胃腸科内科外科医院</name>
<address>水落町４丁目１６－２４</address>
<tel>+81-778-52-5200</tel>
<latitude>35.97075</latitude>
<longitude>136.186636</longitude>
<url>http://www3.city.sabae.fukui.jp/xml/refuge2/#170</url>
</refuge>
<refuge>
<no>171</no>
<areano>3</areano>
<area>神明</area>
<typeno>3</typeno>
<type>医療機関</type>
<name>みどりヶ丘病院</name>
<address>三六町１丁目２－６</address>
<tel>+81-778-51-1370</tel>
<latitude>35.968519</latitude>
<longitude>136.177317</longitude>
<url>http://www3.city.sabae.fukui.jp/xml/refuge2/#171</url>
</refuge>
<refuge>
<no>172</no>
<areano>3</areano>
<area>神明</area>
<typeno>3</typeno>
<type>医療機関</type>
<name>柳沢医院</name>
<address>三六町１丁目２－５０</address>
<tel>+81-778-52-6100</tel>
<latitude>35.968141</latitude>
<longitude>136.178396</longitude>
<url>http://www3.city.sabae.fukui.jp/xml/refuge2/#172</url>
</refuge>
<refuge>
<no>173</no>
<areano>3</areano>
<area>神明</area>
<typeno>4</typeno>
<type>災害時要援護者利用施設</type>
<name>福授園神中事業所</name>
<address>神中町２丁目６－２０</address>
<tel>+81-778-51-2910</tel>
<latitude>35.974524</latitude>
<longitude>136.189561</longitude>
<url>http://www3.city.sabae.fukui.jp/xml/refuge2/#173</url>
</refuge>
<refuge>
<no>174</no>
<areano>3</areano>
<area>神明</area>
<typeno>4</typeno>
<type>災害時要援護者利用施設</type>
<name>福授園御幸事業所</name>
<address>御幸１丁目２０４－５</address>
<tel>+81-778-52-1552</tel>
<latitude>35.974994</latitude>
<longitude>136.194697</longitude>
<url>http://www3.city.sabae.fukui.jp/xml/refuge2/#174</url>
</refuge>
<refuge>
<no>175</no>
<areano>3</areano>
<area>神明</area>
<typeno>4</typeno>
<type>災害時要援護者利用施設</type>
<name>千草の家</name>
<address>三六町１丁目２－５－１</address>
<tel>+81-778-53-0058</tel>
<latitude>35.968551</latitude>
<longitude>136.177669</longitude>
<url>http://www3.city.sabae.fukui.jp/xml/refuge2/#175</url>
</refuge>
<refuge>
<no>176</no>
<areano>3</areano>
<area>神明</area>
<typeno>4</typeno>
<type>災害時要援護者利用施設</type>
<name>地域活動支援センター やすらぎ</name>
<address>三六町１丁目２－５－１</address>
<tel>+81-778-53-0002</tel>
<latitude>35.968551</latitude>
<longitude>136.177669</longitude>
<url>http://www3.city.sabae.fukui.jp/xml/refuge2/#176</url>
</refuge>
<refuge>
<no>177</no>
<areano>3</areano>
<area>神明</area>
<typeno>4</typeno>
<type>災害時要援護者利用施設</type>
<name>さつき荘</name>
<address>三六町１丁目１０－６</address>
<tel>+81-778-51-1370</tel>
<latitude>35.968521</latitude>
<longitude>136.176376</longitude>
<url>http://www3.city.sabae.fukui.jp/xml/refuge2/#177</url>
</refuge>
<refuge>
<no>178</no>
<areano>3</areano>
<area>神明</area>
<typeno>4</typeno>
<type>災害時要援護者利用施設</type>
<name>グループホーム丸山ホーム</name>
<address>丸山町２丁目１０－１１</address>
<tel>+81-778-（0776）24-2563</tel>
<latitude>35.982556</latitude>
<longitude>136.183015</longitude>
<url>http://www3.city.sabae.fukui.jp/xml/refuge2/#178</url>
</refuge>
<refuge>
<no>179</no>
<areano>3</areano>
<area>神明</area>
<typeno>4</typeno>
<type>災害時要援護者利用施設</type>
<name>グループホーム青空ホーム</name>
<address>幸町２丁目６－１８</address>
<tel>+81-778-（0776）24-2563</tel>
<latitude>35.978559</latitude>
<longitude>136.179433</longitude>
<url>http://www3.city.sabae.fukui.jp/xml/refuge2/#179</url>
</refuge>
<refuge>
<no>180</no>
<areano>3</areano>
<area>神明</area>
<typeno>4</typeno>
<type>災害時要援護者利用施設</type>
<name>労災リハビリテーション福井作業所</name>
<address>御幸町３丁目８－４</address>
<tel>+81-778-51-4133</tel>
<latitude>35.980506</latitude>
<longitude>136.195081</longitude>
<url>http://www3.city.sabae.fukui.jp/xml/refuge2/#180</url>
</refuge>
<refuge>
<no>181</no>
<areano>3</areano>
<area>神明</area>
<typeno>4</typeno>
<type>災害時要援護者利用施設</type>
<name>鯖江「つつじ苑」</name>
<address>水落町３丁目６－３４</address>
<tel>+81-778-53-0767</tel>
<latitude>35.966722</latitude>
<longitude>136.182026</longitude>
<url>http://www3.city.sabae.fukui.jp/xml/refuge2/#181</url>
</refuge>
<refuge>
<no>182</no>
<areano>3</areano>
<area>神明</area>
<typeno>4</typeno>
<type>災害時要援護者利用施設</type>
<name>ツクイさばえ</name>
<address>三六町１丁目６－２</address>
<tel>+81-778-51-9300</tel>
<latitude>35.971777</latitude>
<longitude>136.180374</longitude>
<url>http://www3.city.sabae.fukui.jp/xml/refuge2/#182</url>
</refuge>
<refuge>
<no>183</no>
<areano>3</areano>
<area>神明</area>
<typeno>4</typeno>
<type>災害時要援護者利用施設</type>
<name>デイサービスセンターいろり</name>
<address>鳥羽３丁目１－２９</address>
<tel>+81-778-54-7300</tel>
<latitude>35.984481</latitude>
<longitude>136.185639</longitude>
<url>http://www3.city.sabae.fukui.jp/xml/refuge2/#183</url>
</refuge>
<refuge>
<no>184</no>
<areano>3</areano>
<area>神明</area>
<typeno>4</typeno>
<type>災害時要援護者利用施設</type>
<name>（社）鯖江市社会福祉協議会鳥羽事業所</name>
<address>神明町５丁目５－３７</address>
<tel>+81-778-51-1839</tel>
<latitude>35.981369</latitude>
<longitude>136.186123</longitude>
<url>http://www3.city.sabae.fukui.jp/xml/refuge2/#184</url>
</refuge>
<refuge>
<no>185</no>
<areano>3</areano>
<area>神明</area>
<typeno>4</typeno>
<type>災害時要援護者利用施設</type>
<name>デイサービスセンターなかま</name>
<latitude>35.981369</latitude>
<longitude>136.186123</longitude>
<url>http://www3.city.sabae.fukui.jp/xml/refuge2/#185</url>
</refuge>
<refuge>
<no>186</no>
<areano>3</areano>
<area>神明</area>
<typeno>4</typeno>
<type>災害時要援護者利用施設</type>
<name>障害者支援センターなかま</name>
<latitude>35.981369</latitude>
<longitude>136.186123</longitude>
<url>http://www3.city.sabae.fukui.jp/xml/refuge2/#186</url>
</refuge>
<refuge>
<no>187</no>
<areano>3</areano>
<area>神明</area>
<typeno>4</typeno>
<type>災害時要援護者利用施設</type>
<name>鯖江市社会福祉協議会</name>
<address>水落町２丁目３０－１</address>
<tel>+81-778-51-0091</tel>
<latitude>35.961608</latitude>
<longitude>136.187812</longitude>
<url>http://www3.city.sabae.fukui.jp/xml/refuge2/#187</url>
</refuge>
<refuge>
<no>188</no>
<areano>3</areano>
<area>神明</area>
<typeno>4</typeno>
<type>災害時要援護者利用施設</type>
<name>アイ・シーなごみの里</name>
<address>三六町１丁目２－３１</address>
<tel>+81-778-51-5234</tel>
<latitude>35.969393</latitude>
<longitude>136.178181</longitude>
<url>http://www3.city.sabae.fukui.jp/xml/refuge2/#188</url>
</refuge>
<refuge>
<no>189</no>
<areano>3</areano>
<area>神明</area>
<typeno>4</typeno>
<type>災害時要援護者利用施設</type>
<name>小規模多機能型居宅介護 もんざえもん</name>
<address>鳥羽３丁目１－２９－１</address>
<tel>+81-778-29-1800</tel>
<latitude>35.984676</latitude>
<longitude>136.185709</longitude>
<url>http://www3.city.sabae.fukui.jp/xml/refuge2/#189</url>
</refuge>
<refuge>
<no>190</no>
<areano>3</areano>
<area>神明</area>
<typeno>4</typeno>
<type>災害時要援護者利用施設</type>
<name>グループホームつつじ</name>
<address>水落町３丁目６－３３</address>
<tel>+81-778-53-2040</tel>
<latitude>35.966728</latitude>
<longitude>136.182043</longitude>
<url>http://www3.city.sabae.fukui.jp/xml/refuge2/#190</url>
</refuge>
<refuge>
<no>191</no>
<areano>3</areano>
<area>神明</area>
<typeno>4</typeno>
<type>災害時要援護者利用施設</type>
<name>あおい保育園</name>
<address>神明町４丁目１－７</address>
<tel>+81-778-52-2231</tel>
<latitude>35.977987</latitude>
<longitude>136.187076</longitude>
<url>http://www3.city.sabae.fukui.jp/xml/refuge2/#191</url>
</refuge>
<refuge>
<no>192</no>
<areano>3</areano>
<area>神明</area>
<typeno>4</typeno>
<type>災害時要援護者利用施設</type>
<name>あすなろ保育園</name>
<address>御幸町２丁目１５－１５</address>
<tel>+81-778-51-6552</tel>
<latitude>35.97797</latitude>
<longitude>136.191738</longitude>
<url>http://www3.city.sabae.fukui.jp/xml/refuge2/#192</url>
</refuge>
<refuge>
<no>193</no>
<areano>3</areano>
<area>神明</area>
<typeno>4</typeno>
<type>災害時要援護者利用施設</type>
<name>草の実保育園</name>
<address>鳥羽１丁目３－１８－２</address>
<tel>+81-778-52-1511</tel>
<latitude>35.984256</latitude>
<longitude>136.18682</longitude>
<url>http://www3.city.sabae.fukui.jp/xml/refuge2/#193</url>
</refuge>
<refuge>
<no>194</no>
<areano>3</areano>
<area>神明</area>
<typeno>4</typeno>
<type>災害時要援護者利用施設</type>
<name>神明ケアセンター</name>
<address>幸町１丁目２－２</address>
<tel>+81-778-51-8228</tel>
<latitude>35.973099</latitude>
<longitude>136.181039</longitude>
<url>http://www3.city.sabae.fukui.jp/xml/refuge2/#194</url>
</refuge>
<refuge>
<no>195</no>
<areano>3</areano>
<area>神明</area>
<typeno>4</typeno>
<type>災害時要援護者利用施設</type>
<name>Ｃ＆Ｒ(介護とリハビリ)ホール</name>
<latitude>35.973099</latitude>
<longitude>136.181039</longitude>
<url>http://www3.city.sabae.fukui.jp/xml/refuge2/#195</url>
</refuge>
<refuge>
<no>196</no>
<areano>4</areano>
<area>中河</area>
<typeno>1</typeno>
<type>避難所</type>
<name>中河小学校</name>
<address>中野町７３－１６</address>
<tel>+81-778-51-0518</tel>
<latitude>35.95429</latitude>
<longitude>136.208658</longitude>
<url>http://www3.city.sabae.fukui.jp/xml/refuge2/#196</url>
</refuge>
<refuge>
<no>197</no>
<areano>4</areano>
<area>中河</area>
<typeno>1</typeno>
<type>避難所</type>
<name>中河公民館</name>
<address>中野町２０３－８</address>
<tel>+81-778-51-3102</tel>
<latitude>35.956213</latitude>
<longitude>136.208984</longitude>
<url>http://www3.city.sabae.fukui.jp/xml/refuge2/#197</url>
</refuge>
<refuge>
<no>198</no>
<areano>4</areano>
<area>中河</area>
<typeno>1</typeno>
<type>避難所</type>
<name>中河保育所</name>
<address>中野町２０８－１</address>
<tel>+81-778-51-3103</tel>
<latitude>35.954532</latitude>
<longitude>136.210406</longitude>
<url>http://www3.city.sabae.fukui.jp/xml/refuge2/#198</url>
</refuge>
<refuge>
<no>199</no>
<areano>4</areano>
<area>中河</area>
<typeno>1</typeno>
<type>避難所</type>
<name>みずほ保育所</name>
<address>下河端町４７－４３</address>
<tel>+81-778-51-1416</tel>
<latitude>35.968683</latitude>
<longitude>136.198288</longitude>
<url>http://www3.city.sabae.fukui.jp/xml/refuge2/#199</url>
</refuge>
<refuge>
<no>200</no>
<areano>4</areano>
<area>中河</area>
<typeno>1</typeno>
<type>避難所</type>
<name>曲木児童センター</name>
<address>中野町５４－３０－１</address>
<tel>+81-778-52-5940</tel>
<latitude>35.953851</latitude>
<longitude>136.206846</longitude>
<url>http://www3.city.sabae.fukui.jp/xml/refuge2/#200</url>
</refuge>
<refuge>
<no>201</no>
<areano>4</areano>
<area>中河</area>
<typeno>1</typeno>
<type>避難所</type>
<name>環境教育支援センター（エコネットさばえ）</name>
<address>中野町７３－１１</address>
<tel>+81-778-52-0050</tel>
<latitude>35.954606</latitude>
<longitude>136.208515</longitude>
<url>http://www3.city.sabae.fukui.jp/xml/refuge2/#201</url>
</refuge>
<refuge>
<no>202</no>
<areano>4</areano>
<area>中河</area>
<typeno>1</typeno>
<type>避難所</type>
<name>高年大学</name>
<address>舟枝町４－２３－１</address>
<tel>+81-778-52-8824</tel>
<latitude>35.962879</latitude>
<longitude>136.206737</longitude>
<url>http://www3.city.sabae.fukui.jp/xml/refuge2/#202</url>
</refuge>
<refuge>
<no>203</no>
<areano>4</areano>
<area>中河</area>
<typeno>2</typeno>
<type>一時避難場所</type>
<name>出口・木引区公民館</name>
<address>出口・木引</address>
<latitude>35.948616</latitude>
<longitude>136.20911</longitude>
<url>http://www3.city.sabae.fukui.jp/xml/refuge2/#203</url>
</refuge>
<refuge>
<no>204</no>
<areano>4</areano>
<area>中河</area>
<typeno>2</typeno>
<type>一時避難場所</type>
<name>花出コミュニティ会館</name>
<address>花出</address>
<latitude>35.947952</latitude>
<longitude>136.213402</longitude>
<url>http://www3.city.sabae.fukui.jp/xml/refuge2/#204</url>
</refuge>
<refuge>
<no>205</no>
<areano>4</areano>
<area>中河</area>
<typeno>2</typeno>
<type>一時避難場所</type>
<name>樋口公民館</name>
<address>樋口</address>
<latitude>35.952326</latitude>
<longitude>136.212212</longitude>
<url>http://www3.city.sabae.fukui.jp/xml/refuge2/#205</url>
</refuge>
<refuge>
<no>206</no>
<areano>4</areano>
<area>中河</area>
<typeno>2</typeno>
<type>一時避難場所</type>
<name>町公民館</name>
<address>町</address>
<latitude>35.95124</latitude>
<longitude>136.209616</longitude>
<url>http://www3.city.sabae.fukui.jp/xml/refuge2/#206</url>
</refuge>
<refuge>
<no>207</no>
<areano>4</areano>
<area>中河</area>
<typeno>2</typeno>
<type>一時避難場所</type>
<name>曲木児童センター</name>
<address>曲木</address>
<tel>+81-778-52-5940</tel>
<latitude>35.953817</latitude>
<longitude>136.206843</longitude>
<url>http://www3.city.sabae.fukui.jp/xml/refuge2/#207</url>
</refuge>
<refuge>
<no>208</no>
<areano>4</areano>
<area>中河</area>
<typeno>2</typeno>
<type>一時避難場所</type>
<name>原ふれあい会館</name>
<address>原</address>
<latitude>35.94741</latitude>
<longitude>136.219835</longitude>
<url>http://www3.city.sabae.fukui.jp/xml/refuge2/#208</url>
</refuge>
<refuge>
<no>209</no>
<areano>4</areano>
<area>中河</area>
<typeno>2</typeno>
<type>一時避難場所</type>
<name>中野松成集落センター</name>
<address>松成</address>
<tel>+81-778-51-4002</tel>
<latitude>35.954489</latitude>
<longitude>136.221258</longitude>
<url>http://www3.city.sabae.fukui.jp/xml/refuge2/#209</url>
</refuge>
<refuge>
<no>210</no>
<areano>4</areano>
<area>中河</area>
<typeno>2</typeno>
<type>一時避難場所</type>
<name>上河端町集落センター</name>
<address>上河端町</address>
<tel>+81-778-52-6335</tel>
<latitude>35.9543</latitude>
<longitude>136.20251</longitude>
<url>http://www3.city.sabae.fukui.jp/xml/refuge2/#210</url>
</refuge>
<refuge>
<no>211</no>
<areano>4</areano>
<area>中河</area>
<typeno>2</typeno>
<type>一時避難場所</type>
<name>新出集落センター</name>
<address>新出</address>
<tel>+81-778-52-8488</tel>
<latitude>35.955941</latitude>
<longitude>136.196609</longitude>
<url>http://www3.city.sabae.fukui.jp/xml/refuge2/#211</url>
</refuge>
<refuge>
<no>212</no>
<areano>4</areano>
<area>中河</area>
<typeno>2</typeno>
<type>一時避難場所</type>
<name>舟枝町公民館</name>
<address>舟枝町</address>
<latitude>35.962906</latitude>
<longitude>136.208392</longitude>
<url>http://www3.city.sabae.fukui.jp/xml/refuge2/#212</url>
</refuge>
<refuge>
<no>213</no>
<areano>4</areano>
<area>中河</area>
<typeno>2</typeno>
<type>一時避難場所</type>
<name>橋立公民館</name>
<address>橋立町</address>
<tel>+81-778-51-9351</tel>
<latitude>35.965745</latitude>
<longitude>136.210087</longitude>
<url>http://www3.city.sabae.fukui.jp/xml/refuge2/#213</url>
</refuge>
<refuge>
<no>214</no>
<areano>4</areano>
<area>中河</area>
<typeno>2</typeno>
<type>一時避難場所</type>
<name>下河端公園</name>
<address>下河端町</address>
<latitude>35.96504</latitude>
<longitude>136.200109</longitude>
<url>http://www3.city.sabae.fukui.jp/xml/refuge2/#214</url>
</refuge>
<refuge>
<no>215</no>
<areano>4</areano>
<area>中河</area>
<typeno>2</typeno>
<type>一時避難場所</type>
<name>青葉公民館</name>
<address>青葉町</address>
<latitude>35.97064</latitude>
<longitude>136.210012</longitude>
<url>http://www3.city.sabae.fukui.jp/xml/refuge2/#215</url>
</refuge>
<refuge>
<no>216</no>
<areano>4</areano>
<area>中河</area>
<typeno>3</typeno>
<type>医療機関</type>
<name>きむら内科医院</name>
<address>中野町２５７－３－７</address>
<tel>+81-778-54-0707</tel>
<latitude>35.948149</latitude>
<longitude>136.22071</longitude>
<url>http://www3.city.sabae.fukui.jp/xml/refuge2/#216</url>
</refuge>
<refuge>
<no>217</no>
<areano>4</areano>
<area>中河</area>
<typeno>3</typeno>
<type>医療機関</type>
<name>斎藤病院</name>
<address>中野町６－１－１</address>
<tel>+81-778-51-0593</tel>
<latitude>35.944815</latitude>
<longitude>136.206455</longitude>
<url>http://www3.city.sabae.fukui.jp/xml/refuge2/#217</url>
</refuge>
<refuge>
<no>218</no>
<areano>4</areano>
<area>中河</area>
<typeno>3</typeno>
<type>医療機関</type>
<name>品川クリニック</name>
<address>中野町５６－１０</address>
<tel>+81-778-51-0011</tel>
<latitude>35.953502</latitude>
<longitude>136.205782</longitude>
<url>http://www3.city.sabae.fukui.jp/xml/refuge2/#218</url>
</refuge>
<refuge>
<no>219</no>
<areano>4</areano>
<area>中河</area>
<typeno>4</typeno>
<type>災害時要援護者利用施設</type>
<name>鯖江ケアセンターみどり荘</name>
<address>中野町３３－２０－１</address>
<tel>+81-778-51-7540</tel>
<latitude>35.947842</latitude>
<longitude>136.206116</longitude>
<url>http://www3.city.sabae.fukui.jp/xml/refuge2/#219</url>
</refuge>
<refuge>
<no>220</no>
<areano>4</areano>
<area>中河</area>
<typeno>4</typeno>
<type>災害時要援護者利用施設</type>
<name>憩の里デイサービスセンター</name>
<address>中野町１２－８－１</address>
<tel>+81-778-51-1501</tel>
<latitude>35.945978</latitude>
<longitude>136.207355</longitude>
<url>http://www3.city.sabae.fukui.jp/xml/refuge2/#220</url>
</refuge>
<refuge>
<no>221</no>
<areano>4</areano>
<area>中河</area>
<typeno>4</typeno>
<type>災害時要援護者利用施設</type>
<name>いずみ保育園</name>
<address>下河端町２－８</address>
<tel>+81-778-52-4771</tel>
<latitude>35.969907</latitude>
<longitude>136.187984</longitude>
<url>http://www3.city.sabae.fukui.jp/xml/refuge2/#221</url>
</refuge>
<refuge>
<no>222</no>
<areano>5</areano>
<area>片上</area>
<typeno>1</typeno>
<type>避難所</type>
<name>片上小学校</name>
<address>大野町１６－６</address>
<tel>+81-778-51-4802</tel>
<latitude>35.973756</latitude>
<longitude>136.231683</longitude>
<url>http://www3.city.sabae.fukui.jp/xml/refuge2/#222</url>
</refuge>
<refuge>
<no>223</no>
<areano>5</areano>
<area>片上</area>
<typeno>1</typeno>
<type>避難所</type>
<name>片上幼稚園</name>
<address>大野町１６－６</address>
<tel>+81-778-52-5791</tel>
<latitude>35.974311</latitude>
<longitude>136.231575</longitude>
<url>http://www3.city.sabae.fukui.jp/xml/refuge2/#223</url>
</refuge>
<refuge>
<no>224</no>
<areano>5</areano>
<area>片上</area>
<typeno>1</typeno>
<type>避難所</type>
<name>片上公民館</name>
<address>大野町６－８－１</address>
<tel>+81-778-51-4801</tel>
<latitude>35.973656</latitude>
<longitude>136.230857</longitude>
<url>http://www3.city.sabae.fukui.jp/xml/refuge2/#224</url>
</refuge>
<refuge>
<no>225</no>
<areano>5</areano>
<area>片上</area>
<typeno>2</typeno>
<type>一時避難場所</type>
<name>吉谷町公民館</name>
<address>吉谷町</address>
<tel>+81-778-52-5908</tel>
<latitude>35.970171</latitude>
<longitude>136.220451</longitude>
<url>http://www3.city.sabae.fukui.jp/xml/refuge2/#225</url>
</refuge>
<refuge>
<no>226</no>
<areano>5</areano>
<area>片上</area>
<typeno>2</typeno>
<type>一時避難場所</type>
<name>吉谷町公園</name>
<address>吉谷町</address>
<latitude>35.968335</latitude>
<longitude>136.216541</longitude>
<url>http://www3.city.sabae.fukui.jp/xml/refuge2/#226</url>
</refuge>
<refuge>
<no>227</no>
<areano>5</areano>
<area>片上</area>
<typeno>2</typeno>
<type>一時避難場所</type>
<name>四方谷町集落センター広場</name>
<address>四方谷町</address>
<latitude>35.977389</latitude>
<longitude>136.221428</longitude>
<url>http://www3.city.sabae.fukui.jp/xml/refuge2/#227</url>
</refuge>
<refuge>
<no>228</no>
<areano>5</areano>
<area>片上</area>
<typeno>2</typeno>
<type>一時避難場所</type>
<name>南井町公民館</name>
<address>南井町</address>
<latitude>35.982919</latitude>
<longitude>136.225429</longitude>
<url>http://www3.city.sabae.fukui.jp/xml/refuge2/#228</url>
</refuge>
<refuge>
<no>229</no>
<areano>5</areano>
<area>片上</area>
<typeno>2</typeno>
<type>一時避難場所</type>
<name>大正寺町白山神社</name>
<address>大正寺町</address>
<latitude>35.983375</latitude>
<longitude>136.230625</longitude>
<url>http://www3.city.sabae.fukui.jp/xml/refuge2/#229</url>
</refuge>
<refuge>
<no>230</no>
<areano>5</areano>
<area>片上</area>
<typeno>2</typeno>
<type>一時避難場所</type>
<name>大野町集落センター</name>
<address>大野町</address>
<tel>+81-778-51-6466</tel>
<latitude>35.974376</latitude>
<longitude>136.230941</longitude>
<url>http://www3.city.sabae.fukui.jp/xml/refuge2/#230</url>
</refuge>
<refuge>
<no>231</no>
<areano>5</areano>
<area>片上</area>
<typeno>2</typeno>
<type>一時避難場所</type>
<name>別所町広場</name>
<address>別所町</address>
<latitude>35.973985</latitude>
<longitude>136.24203</longitude>
<url>http://www3.city.sabae.fukui.jp/xml/refuge2/#231</url>
</refuge>
<refuge>
<no>232</no>
<areano>5</areano>
<area>片上</area>
<typeno>2</typeno>
<type>一時避難場所</type>
<name>乙坂今北公民館</name>
<address>乙坂今北町</address>
<tel>+81-778-51-9424</tel>
<latitude>35.961282</latitude>
<longitude>136.231317</longitude>
<url>http://www3.city.sabae.fukui.jp/xml/refuge2/#232</url>
</refuge>
<refuge>
<no>233</no>
<areano>5</areano>
<area>片上</area>
<typeno>2</typeno>
<type>一時避難場所</type>
<name>青葉台ふれあい会館</name>
<address>吉谷町青葉台</address>
<latitude>35.970964</latitude>
<longitude>136.213003</longitude>
<url>http://www3.city.sabae.fukui.jp/xml/refuge2/#233</url>
</refuge>
<refuge>
<no>234</no>
<areano>5</areano>
<area>片上</area>
<typeno>4</typeno>
<type>災害時要援護者利用施設</type>
<name>ことぶき荘</name>
<address>大野町３－１</address>
<tel>+81-778-51-7780</tel>
<latitude>35.978649</latitude>
<longitude>136.228223</longitude>
<url>http://www3.city.sabae.fukui.jp/xml/refuge2/#234</url>
</refuge>
<refuge>
<no>235</no>
<areano>6</areano>
<area>立待</area>
<typeno>1</typeno>
<type>避難所</type>
<name>立待小学校</name>
<address>杉本町１－５</address>
<tel>+81-778-51-1505</tel>
<latitude>35.983888</latitude>
<longitude>136.169976</longitude>
<url>http://www3.city.sabae.fukui.jp/xml/refuge2/#235</url>
</refuge>
<refuge>
<no>236</no>
<areano>6</areano>
<area>立待</area>
<typeno>1</typeno>
<type>避難所</type>
<name>立待公民館</name>
<address>杉本町７０２－２</address>
<tel>+81-778-51-3376</tel>
<latitude>35.983106</latitude>
<longitude>136.174076</longitude>
<url>http://www3.city.sabae.fukui.jp/xml/refuge2/#236</url>
</refuge>
<refuge>
<no>237</no>
<areano>6</areano>
<area>立待</area>
<typeno>1</typeno>
<type>避難所</type>
<name>立待保育所</name>
<address>杉本町３３－４－１</address>
<tel>+81-778-51-3377</tel>
<latitude>35.983618</latitude>
<longitude>136.173657</longitude>
<url>http://www3.city.sabae.fukui.jp/xml/refuge2/#237</url>
</refuge>
<refuge>
<no>238</no>
<areano>6</areano>
<area>立待</area>
<typeno>1</typeno>
<type>避難所</type>
<name>石田保育所</name>
<address>石田上町４４－１</address>
<tel>+81-778-51-1972</tel>
<latitude>35.979572</latitude>
<longitude>136.160892</longitude>
<url>http://www3.city.sabae.fukui.jp/xml/refuge2/#238</url>
</refuge>
<refuge>
<no>239</no>
<areano>6</areano>
<area>立待</area>
<typeno>1</typeno>
<type>避難所</type>
<name>石田児童センター</name>
<address>石田下町１７－１１</address>
<tel>+81-778-52-5150</tel>
<latitude>35.978014</latitude>
<longitude>136.157117</longitude>
<url>http://www3.city.sabae.fukui.jp/xml/refuge2/#239</url>
</refuge>
<refuge>
<no>240</no>
<areano>6</areano>
<area>立待</area>
<typeno>1</typeno>
<type>避難所</type>
<name>立待体育館</name>
<address>杉本町５１３</address>
<tel>+81-778-51-1567</tel>
<latitude>35.983722</latitude>
<longitude>136.172514</longitude>
<url>http://www3.city.sabae.fukui.jp/xml/refuge2/#240</url>
</refuge>
<refuge>
<no>241</no>
<areano>6</areano>
<area>立待</area>
<typeno>1</typeno>
<type>避難所</type>
<name>弓道場</name>
<address>杉本町６１９</address>
<tel>+81-778-52-4524</tel>
<latitude>35.982832</latitude>
<longitude>136.173582</longitude>
<url>http://www3.city.sabae.fukui.jp/xml/refuge2/#241</url>
</refuge>
<refuge>
<no>242</no>
<areano>6</areano>
<area>立待</area>
<typeno>1</typeno>
<type>避難所</type>
<name>西公園</name>
<latitude>35.971373</latitude>
<longitude>136.165504</longitude>
<url>http://www3.city.sabae.fukui.jp/xml/refuge2/#242</url>
</refuge>
<refuge>
<no>243</no>
<areano>6</areano>
<area>立待</area>
<typeno>2</typeno>
<type>一時避難場所</type>
<name>吉江第１公園</name>
<address>吉江中</address>
<latitude>35.986567</latitude>
<longitude>136.173473</longitude>
<url>http://www3.city.sabae.fukui.jp/xml/refuge2/#243</url>
</refuge>
<refuge>
<no>244</no>
<areano>6</areano>
<area>立待</area>
<typeno>2</typeno>
<type>一時避難場所</type>
<name>北道宅横空地</name>
<address>吉江住宅団地</address>
<latitude>35.990287</latitude>
<longitude>136.175903</longitude>
<url>http://www3.city.sabae.fukui.jp/xml/refuge2/#244</url>
</refuge>
<refuge>
<no>245</no>
<areano>6</areano>
<area>立待</area>
<typeno>2</typeno>
<type>一時避難場所</type>
<name>春慶寺</name>
<address>米岡町</address>
<tel>+81-778-52-2015</tel>
<latitude>35.989697</latitude>
<longitude>136.176665</longitude>
<url>http://www3.city.sabae.fukui.jp/xml/refuge2/#245</url>
</refuge>
<refuge>
<no>246</no>
<areano>6</areano>
<area>立待</area>
<typeno>2</typeno>
<type>一時避難場所</type>
<name>田畑宅西側</name>
<address>入町</address>
<latitude>35.993716</latitude>
<longitude>136.168267</longitude>
<url>http://www3.city.sabae.fukui.jp/xml/refuge2/#246</url>
</refuge>
<refuge>
<no>247</no>
<areano>6</areano>
<area>立待</area>
<typeno>2</typeno>
<type>一時避難場所</type>
<name>西番町ふれあい会館</name>
<address>西番町</address>
<latitude>35.98905</latitude>
<longitude>136.166781</longitude>
<url>http://www3.city.sabae.fukui.jp/xml/refuge2/#247</url>
</refuge>
<refuge>
<no>248</no>
<areano>6</areano>
<area>立待</area>
<typeno>2</typeno>
<type>一時避難場所</type>
<name>杉本フラワー園</name>
<address>上杉本</address>
<latitude>35.980062</latitude>
<longitude>136.173897</longitude>
<url>http://www3.city.sabae.fukui.jp/xml/refuge2/#248</url>
</refuge>
<refuge>
<no>249</no>
<areano>6</areano>
<area>立待</area>
<typeno>2</typeno>
<type>一時避難場所</type>
<name>中杉本ふれあい会館</name>
<address>中杉本</address>
<tel>+81-778-52-0063</tel>
<latitude>35.982441</latitude>
<longitude>136.175688</longitude>
<url>http://www3.city.sabae.fukui.jp/xml/refuge2/#249</url>
</refuge>
<refuge>
<no>250</no>
<areano>6</areano>
<area>立待</area>
<typeno>2</typeno>
<type>一時避難場所</type>
<name>立待小学校</name>
<address>下杉本</address>
<tel>+81-778-51-1505</tel>
<latitude>35.983888</latitude>
<longitude>136.169976</longitude>
<url>http://www3.city.sabae.fukui.jp/xml/refuge2/#250</url>
</refuge>
<refuge>
<no>251</no>
<areano>6</areano>
<area>立待</area>
<typeno>2</typeno>
<type>一時避難場所</type>
<name>糺第２公園</name>
<address>糺町</address>
<latitude>35.977796</latitude>
<longitude>136.167294</longitude>
<url>http://www3.city.sabae.fukui.jp/xml/refuge2/#251</url>
</refuge>
<refuge>
<no>252</no>
<areano>6</areano>
<area>立待</area>
<typeno>2</typeno>
<type>一時避難場所</type>
<name>北部第３公園</name>
<address>糺町</address>
<latitude>35.979303</latitude>
<longitude>136.175743</longitude>
<url>http://www3.city.sabae.fukui.jp/xml/refuge2/#252</url>
</refuge>
<refuge>
<no>253</no>
<areano>6</areano>
<area>立待</area>
<typeno>2</typeno>
<type>一時避難場所</type>
<name>糺コミュニティセンター</name>
<address>糺町</address>
<tel>+81-778-51-9423</tel>
<latitude>35.975242</latitude>
<longitude>136.175596</longitude>
<url>http://www3.city.sabae.fukui.jp/xml/refuge2/#253</url>
</refuge>
<refuge>
<no>254</no>
<areano>6</areano>
<area>立待</area>
<typeno>2</typeno>
<type>一時避難場所</type>
<name>石田上町ふれあい会館</name>
<address>石田上町</address>
<tel>+81-778-52-4871</tel>
<latitude>35.976483</latitude>
<longitude>136.160672</longitude>
<url>http://www3.city.sabae.fukui.jp/xml/refuge2/#254</url>
</refuge>
<refuge>
<no>255</no>
<areano>6</areano>
<area>立待</area>
<typeno>2</typeno>
<type>一時避難場所</type>
<name>石田中若宮神社</name>
<address>石田中町</address>
<latitude>35.976014</latitude>
<longitude>136.156735</longitude>
<url>http://www3.city.sabae.fukui.jp/xml/refuge2/#255</url>
</refuge>
<refuge>
<no>256</no>
<areano>6</areano>
<area>立待</area>
<typeno>2</typeno>
<type>一時避難場所</type>
<name>石田下町公民館</name>
<address>石田下町</address>
<latitude>35.97723</latitude>
<longitude>136.156402</longitude>
<url>http://www3.city.sabae.fukui.jp/xml/refuge2/#256</url>
</refuge>
<refuge>
<no>257</no>
<areano>6</areano>
<area>立待</area>
<typeno>2</typeno>
<type>一時避難場所</type>
<name>東米岡２丁目公民館</name>
<address>東米岡２丁目</address>
<tel>+81-778-53-0680</tel>
<latitude>35.987474</latitude>
<longitude>136.18353</longitude>
<url>http://www3.city.sabae.fukui.jp/xml/refuge2/#257</url>
</refuge>
<refuge>
<no>258</no>
<areano>6</areano>
<area>立待</area>
<typeno>2</typeno>
<type>一時避難場所</type>
<name>自衛隊駐屯地南西角</name>
<address>平和台団地</address>
<latitude>35.993308</latitude>
<longitude>136.171253</longitude>
<url>http://www3.city.sabae.fukui.jp/xml/refuge2/#258</url>
</refuge>
<refuge>
<no>259</no>
<areano>6</areano>
<area>立待</area>
<typeno>2</typeno>
<type>一時避難場所</type>
<name>塩路宅北側</name>
<address>吉江山手団地</address>
<latitude>35.990725</latitude>
<longitude>136.174917</longitude>
<url>http://www3.city.sabae.fukui.jp/xml/refuge2/#259</url>
</refuge>
<refuge>
<no>260</no>
<areano>6</areano>
<area>立待</area>
<typeno>2</typeno>
<type>一時避難場所</type>
<name>丸山公園</name>
<address>丸山町３丁目</address>
<latitude>35.982873</latitude>
<longitude>136.17878</longitude>
<url>http://www3.city.sabae.fukui.jp/xml/refuge2/#260</url>
</refuge>
<refuge>
<no>261</no>
<areano>6</areano>
<area>立待</area>
<typeno>2</typeno>
<type>一時避難場所</type>
<name>西杉本公園</name>
<address>西杉本</address>
<latitude>35.986354</latitude>
<longitude>136.163094</longitude>
<url>http://www3.city.sabae.fukui.jp/xml/refuge2/#261</url>
</refuge>
<refuge>
<no>262</no>
<areano>6</areano>
<area>立待</area>
<typeno>3</typeno>
<type>医療機関</type>
<name>ともだち診療所</name>
<address>石田上町２３－１４</address>
<tel>+81-778-51-4895</tel>
<latitude>35.974203</latitude>
<longitude>136.161149</longitude>
<url>http://www3.city.sabae.fukui.jp/xml/refuge2/#262</url>
</refuge>
<refuge>
<no>263</no>
<areano>6</areano>
<area>立待</area>
<typeno>3</typeno>
<type>医療機関</type>
<name>馬場医院</name>
<address>杉本町１６－１－３</address>
<tel>+81-778-51-1677</tel>
<latitude>35.982069</latitude>
<longitude>136.16949</longitude>
<url>http://www3.city.sabae.fukui.jp/xml/refuge2/#263</url>
</refuge>
<refuge>
<no>264</no>
<areano>6</areano>
<area>立待</area>
<typeno>4</typeno>
<type>災害時要援護者利用施設</type>
<name>エレガント・セニール・ガーデン</name>
<address>吉江町３１－７－１</address>
<tel>+81-778-53-2772</tel>
<latitude>35.986788</latitude>
<longitude>136.168366</longitude>
<url>http://www3.city.sabae.fukui.jp/xml/refuge2/#264</url>
</refuge>
<refuge>
<no>265</no>
<areano>6</areano>
<area>立待</area>
<typeno>4</typeno>
<type>災害時要援護者利用施設</type>
<name>グループホームさくら園</name>
<address>糺町１４－６</address>
<tel>+81-778-51-1711</tel>
<latitude>35.974727</latitude>
<longitude>136.170057</longitude>
<url>http://www3.city.sabae.fukui.jp/xml/refuge2/#265</url>
</refuge>
<refuge>
<no>266</no>
<areano>6</areano>
<area>立待</area>
<typeno>4</typeno>
<type>災害時要援護者利用施設</type>
<name>吉江学園</name>
<address>西番町２４－１－１</address>
<tel>+81-778-51-1614</tel>
<latitude>35.988141</latitude>
<longitude>136.183018</longitude>
<url>http://www3.city.sabae.fukui.jp/xml/refuge2/#266</url>
</refuge>
<refuge>
<no>267</no>
<areano>6</areano>
<area>立待</area>
<typeno>4</typeno>
<type>災害時要援護者利用施設</type>
<name>吉江保育園</name>
<address>杉本町４０８</address>
<tel>+81-778-51-6555</tel>
<latitude>35.982896</latitude>
<longitude>136.171795</longitude>
<url>http://www3.city.sabae.fukui.jp/xml/refuge2/#267</url>
</refuge>
<refuge>
<no>268</no>
<areano>6</areano>
<area>立待</area>
<typeno>4</typeno>
<type>災害時要援護者利用施設</type>
<name>白蓮保育園</name>
<address>糺町３７－７</address>
<tel>+81-778-51-2493</tel>
<latitude>35.984025</latitude>
<longitude>136.172364</longitude>
<url>http://www3.city.sabae.fukui.jp/xml/refuge2/#268</url>
</refuge>
<refuge>
<no>269</no>
<areano>7</areano>
<area>吉川</area>
<typeno>1</typeno>
<type>避難所</type>
<name>吉川小学校</name>
<address>大倉町２２－１</address>
<tel>+81-778-62-1134</tel>
<latitude>35.961902</latitude>
<longitude>136.157322</longitude>
<url>http://www3.city.sabae.fukui.jp/xml/refuge2/#269</url>
</refuge>
<refuge>
<no>270</no>
<areano>7</areano>
<area>吉川</area>
<typeno>1</typeno>
<type>避難所</type>
<name>吉川公民館</name>
<address>大倉町５－１４－１</address>
<tel>+81-778-62-1020</tel>
<latitude>35.96307</latitude>
<longitude>136.157338</longitude>
<url>http://www3.city.sabae.fukui.jp/xml/refuge2/#270</url>
</refuge>
<refuge>
<no>271</no>
<areano>7</areano>
<area>吉川</area>
<typeno>1</typeno>
<type>避難所</type>
<name>吉川保育所</name>
<address>大倉町５－２０</address>
<tel>+81-778-62-1332</tel>
<latitude>35.962927</latitude>
<longitude>136.156453</longitude>
<url>http://www3.city.sabae.fukui.jp/xml/refuge2/#271</url>
</refuge>
<refuge>
<no>272</no>
<areano>7</areano>
<area>吉川</area>
<typeno>1</typeno>
<type>避難所</type>
<name>平井児童センター</name>
<address>平井町２７－９－５</address>
<tel>+81-778-62-0716</tel>
<latitude>35.961634</latitude>
<longitude>136.164726</longitude>
<url>http://www3.city.sabae.fukui.jp/xml/refuge2/#272</url>
</refuge>
<refuge>
<no>273</no>
<areano>7</areano>
<area>吉川</area>
<typeno>2</typeno>
<type>一時避難場所</type>
<name>川去町八幡神社</name>
<address>川去町</address>
<latitude>35.966354</latitude>
<longitude>136.141137</longitude>
<url>http://www3.city.sabae.fukui.jp/xml/refuge2/#273</url>
</refuge>
<refuge>
<no>274</no>
<areano>7</areano>
<area>吉川</area>
<typeno>2</typeno>
<type>一時避難場所</type>
<name>西大井町集落センター</name>
<address>西大井町</address>
<latitude>35.958045</latitude>
<longitude>136.138348</longitude>
<url>http://www3.city.sabae.fukui.jp/xml/refuge2/#274</url>
</refuge>
<refuge>
<no>275</no>
<areano>7</areano>
<area>吉川</area>
<typeno>2</typeno>
<type>一時避難場所</type>
<name>田村町集落センター</name>
<address>田村町</address>
<latitude>35.965096</latitude>
<longitude>136.148563</longitude>
<url>http://www3.city.sabae.fukui.jp/xml/refuge2/#275</url>
</refuge>
<refuge>
<no>276</no>
<areano>7</areano>
<area>吉川</area>
<typeno>2</typeno>
<type>一時避難場所</type>
<name>持明寺町ふれあい会館</name>
<address>持明寺町</address>
<latitude>35.960055</latitude>
<longitude>136.146562</longitude>
<url>http://www3.city.sabae.fukui.jp/xml/refuge2/#276</url>
</refuge>
<refuge>
<no>277</no>
<areano>7</areano>
<area>吉川</area>
<typeno>2</typeno>
<type>一時避難場所</type>
<name>持明寺町自転車道休憩広場</name>
<address>持明寺町</address>
<latitude>35.963104</latitude>
<longitude>136.146165</longitude>
<url>http://www3.city.sabae.fukui.jp/xml/refuge2/#277</url>
</refuge>
<refuge>
<no>278</no>
<areano>7</areano>
<area>吉川</area>
<typeno>2</typeno>
<type>一時避難場所</type>
<name>冬島町ふれあい会館</name>
<address>冬島町</address>
<tel>+81-778-62-3025</tel>
<latitude>35.953056</latitude>
<longitude>136.148354</longitude>
<url>http://www3.city.sabae.fukui.jp/xml/refuge2/#278</url>
</refuge>
<refuge>
<no>279</no>
<areano>7</areano>
<area>吉川</area>
<typeno>2</typeno>
<type>一時避難場所</type>
<name>二丁掛町公民館</name>
<address>二丁掛町</address>
<latitude>35.952561</latitude>
<longitude>136.156175</longitude>
<url>http://www3.city.sabae.fukui.jp/xml/refuge2/#279</url>
</refuge>
<refuge>
<no>280</no>
<areano>7</areano>
<area>吉川</area>
<typeno>2</typeno>
<type>一時避難場所</type>
<name>吉田町若宮八幡神社</name>
<address>吉田町</address>
<latitude>35.960381</latitude>
<longitude>136.157477</longitude>
<url>http://www3.city.sabae.fukui.jp/xml/refuge2/#280</url>
</refuge>
<refuge>
<no>281</no>
<areano>7</areano>
<area>吉川</area>
<typeno>2</typeno>
<type>一時避難場所</type>
<name>大倉集荷場</name>
<address>大倉町</address>
<latitude>35.965452</latitude>
<longitude>136.157455</longitude>
<url>http://www3.city.sabae.fukui.jp/xml/refuge2/#281</url>
</refuge>
<refuge>
<no>282</no>
<areano>7</areano>
<area>吉川</area>
<typeno>2</typeno>
<type>一時避難場所</type>
<name>小泉町與呉神社</name>
<address>小泉町</address>
<latitude>35.969623</latitude>
<longitude>136.155546</longitude>
<url>http://www3.city.sabae.fukui.jp/xml/refuge2/#282</url>
</refuge>
<refuge>
<no>283</no>
<areano>7</areano>
<area>吉川</area>
<typeno>2</typeno>
<type>一時避難場所</type>
<name>平井児童センター</name>
<address>平井町</address>
<tel>+81-778-62-0716</tel>
<latitude>35.961652</latitude>
<longitude>136.164723</longitude>
<url>http://www3.city.sabae.fukui.jp/xml/refuge2/#283</url>
</refuge>
<refuge>
<no>284</no>
<areano>7</areano>
<area>吉川</area>
<typeno>2</typeno>
<type>一時避難場所</type>
<name>熊田町公民館</name>
<address>熊田町</address>
<tel>+81-778-62-0031</tel>
<latitude>35.94908</latitude>
<longitude>136.167107</longitude>
<url>http://www3.city.sabae.fukui.jp/xml/refuge2/#284</url>
</refuge>
<refuge>
<no>285</no>
<areano>7</areano>
<area>吉川</area>
<typeno>2</typeno>
<type>一時避難場所</type>
<name>日野町内会公民館</name>
<address>日野町内会</address>
<latitude>35.964788</latitude>
<longitude>136.167969</longitude>
<url>http://www3.city.sabae.fukui.jp/xml/refuge2/#285</url>
</refuge>
<refuge>
<no>286</no>
<areano>7</areano>
<area>吉川</area>
<typeno>2</typeno>
<type>一時避難場所</type>
<name>西和町公民館</name>
<address>西和町内会</address>
<latitude>35.955496</latitude>
<longitude>136.144763</longitude>
<url>http://www3.city.sabae.fukui.jp/xml/refuge2/#286</url>
</refuge>
<refuge>
<no>287</no>
<areano>7</areano>
<area>吉川</area>
<typeno>2</typeno>
<type>一時避難場所</type>
<name>あすなろ町ふれあい会館</name>
<address>あすなろ町内会</address>
<latitude>35.954227</latitude>
<longitude>136.157867</longitude>
<url>http://www3.city.sabae.fukui.jp/xml/refuge2/#287</url>
</refuge>
<refuge>
<no>288</no>
<areano>7</areano>
<area>吉川</area>
<typeno>2</typeno>
<type>一時避難場所</type>
<name>あずま町公民館</name>
<address>あずま町内会</address>
<tel>+81-778-62-2891</tel>
<latitude>35.951387</latitude>
<longitude>136.158425</longitude>
<url>http://www3.city.sabae.fukui.jp/xml/refuge2/#288</url>
</refuge>
<refuge>
<no>289</no>
<areano>7</areano>
<area>吉川</area>
<typeno>2</typeno>
<type>一時避難場所</type>
<name>あおい町公園</name>
<address>あおい町</address>
<latitude>35.956663</latitude>
<longitude>136.160082</longitude>
<url>http://www3.city.sabae.fukui.jp/xml/refuge2/#289</url>
</refuge>
<refuge>
<no>290</no>
<areano>7</areano>
<area>吉川</area>
<typeno>2</typeno>
<type>一時避難場所</type>
<name>朝霞第１公園</name>
<address>朝霞町内会</address>
<latitude>35.955978</latitude>
<longitude>136.149394</longitude>
<url>http://www3.city.sabae.fukui.jp/xml/refuge2/#290</url>
</refuge>
<refuge>
<no>291</no>
<areano>7</areano>
<area>吉川</area>
<typeno>2</typeno>
<type>一時避難場所</type>
<name>若葉町児童公園</name>
<address>若葉町内会</address>
<latitude>35.955804</latitude>
<longitude>136.169081</longitude>
<url>http://www3.city.sabae.fukui.jp/xml/refuge2/#291</url>
</refuge>
<refuge>
<no>292</no>
<areano>7</areano>
<area>吉川</area>
<typeno>3</typeno>
<type>医療機関</type>
<name>津田クリニック</name>
<address>平井町４３－１</address>
<tel>+81-778-62-0222</tel>
<latitude>35.957968</latitude>
<longitude>136.168593</longitude>
<url>http://www3.city.sabae.fukui.jp/xml/refuge2/#292</url>
</refuge>
<refuge>
<no>293</no>
<areano>7</areano>
<area>吉川</area>
<typeno>4</typeno>
<type>災害時要援護者利用施設</type>
<name>平井グループホーム</name>
<address>平井町５５－２－３</address>
<tel>+81-778-51-2910</tel>
<latitude>35.961658</latitude>
<longitude>136.168121</longitude>
<url>http://www3.city.sabae.fukui.jp/xml/refuge2/#293</url>
</refuge>
<refuge>
<no>294</no>
<areano>7</areano>
<area>吉川</area>
<typeno>4</typeno>
<type>災害時要援護者利用施設</type>
<name>平井第二グループホーム</name>
<address>平井町５７－３０－８</address>
<tel>+81-778-51-2910</tel>
<latitude>35.963278</latitude>
<longitude>136.168496</longitude>
<url>http://www3.city.sabae.fukui.jp/xml/refuge2/#294</url>
</refuge>
<refuge>
<no>295</no>
<areano>7</areano>
<area>吉川</area>
<typeno>4</typeno>
<type>災害時要援護者利用施設</type>
<name>デイサービスセンターありんこ</name>
<address>西大井町１２－３８－２</address>
<tel>+81-778-62-2944</tel>
<latitude>35.959366</latitude>
<longitude>136.138469</longitude>
<url>http://www3.city.sabae.fukui.jp/xml/refuge2/#295</url>
</refuge>
<refuge>
<no>296</no>
<areano>7</areano>
<area>吉川</area>
<typeno>4</typeno>
<type>災害時要援護者利用施設</type>
<name>ふじ保育園</name>
<address>持明寺町１４－１４－１</address>
<tel>+81-778-62-0236</tel>
<latitude>35.963462</latitude>
<longitude>136.14479</longitude>
<url>http://www3.city.sabae.fukui.jp/xml/refuge2/#296</url>
</refuge>
<refuge>
<no>297</no>
<areano>7</areano>
<area>吉川</area>
<typeno>4</typeno>
<type>災害時要援護者利用施設</type>
<name>丹南デイサービスセンター</name>
<latitude>35.963462</latitude>
<longitude>136.14479</longitude>
<url>http://www3.city.sabae.fukui.jp/xml/refuge2/#297</url>
</refuge>
<refuge>
<no>298</no>
<areano>8</areano>
<area>豊</area>
<typeno>1</typeno>
<type>避難所</type>
<name>豊小学校</name>
<address>下野田町３９－２９</address>
<tel>+81-778-62-1201</tel>
<latitude>35.943696</latitude>
<longitude>136.151343</longitude>
<url>http://www3.city.sabae.fukui.jp/xml/refuge2/#298</url>
</refuge>
<refuge>
<no>299</no>
<areano>8</areano>
<area>豊</area>
<typeno>1</typeno>
<type>避難所</type>
<name>豊幼稚園</name>
<address>上野田町２－９</address>
<tel>+81-778-62-1680</tel>
<latitude>35.942428</latitude>
<longitude>136.151622</longitude>
<url>http://www3.city.sabae.fukui.jp/xml/refuge2/#299</url>
</refuge>
<refuge>
<no>300</no>
<areano>8</areano>
<area>豊</area>
<typeno>1</typeno>
<type>避難所</type>
<name>豊公民館</name>
<address>下野田町２６－８－１</address>
<tel>+81-778-62-1011</tel>
<latitude>35.945984</latitude>
<longitude>136.152168</longitude>
<url>http://www3.city.sabae.fukui.jp/xml/refuge2/#300</url>
</refuge>
<refuge>
<no>301</no>
<areano>8</areano>
<area>豊</area>
<typeno>1</typeno>
<type>避難所</type>
<name>みのり保育所</name>
<address>上野田町２－９</address>
<tel>+81-778-62-1331</tel>
<latitude>35.942428</latitude>
<longitude>136.151622</longitude>
<url>http://www3.city.sabae.fukui.jp/xml/refuge2/#301</url>
</refuge>
<refuge>
<no>302</no>
<areano>8</areano>
<area>豊</area>
<typeno>2</typeno>
<type>一時避難場所</type>
<name>豊小学校</name>
<address>下野田町</address>
<tel>+81-778-62-1201</tel>
<latitude>35.943696</latitude>
<longitude>136.151343</longitude>
<url>http://www3.city.sabae.fukui.jp/xml/refuge2/#302</url>
</refuge>
<refuge>
<no>303</no>
<areano>8</areano>
<area>豊</area>
<typeno>2</typeno>
<type>一時避難場所</type>
<name>日中山広場</name>
<address>和田町</address>
<latitude>35.949047</latitude>
<longitude>136.140226</longitude>
<url>http://www3.city.sabae.fukui.jp/xml/refuge2/#303</url>
</refuge>
<refuge>
<no>304</no>
<areano>8</areano>
<area>豊</area>
<typeno>2</typeno>
<type>一時避難場所</type>
<name>石生谷町公民館</name>
<address>石生谷町</address>
<latitude>35.940535</latitude>
<longitude>136.13455</longitude>
<url>http://www3.city.sabae.fukui.jp/xml/refuge2/#304</url>
</refuge>
<refuge>
<no>305</no>
<areano>8</areano>
<area>豊</area>
<typeno>2</typeno>
<type>一時避難場所</type>
<name>漆原町公民館</name>
<address>漆原町</address>
<latitude>35.942159</latitude>
<longitude>136.143251</longitude>
<url>http://www3.city.sabae.fukui.jp/xml/refuge2/#305</url>
</refuge>
<refuge>
<no>306</no>
<areano>8</areano>
<area>豊</area>
<typeno>2</typeno>
<type>一時避難場所</type>
<name>豊幼稚園</name>
<address>上野田町</address>
<tel>+81-778-62-1680</tel>
<latitude>35.942428</latitude>
<longitude>136.151622</longitude>
<url>http://www3.city.sabae.fukui.jp/xml/refuge2/#306</url>
</refuge>
<refuge>
<no>307</no>
<areano>8</areano>
<area>豊</area>
<typeno>2</typeno>
<type>一時避難場所</type>
<name>上氏家町公民館</name>
<address>上氏家町</address>
<tel>+81-778-62-0748</tel>
<latitude>35.941621</latitude>
<longitude>136.157446</longitude>
<url>http://www3.city.sabae.fukui.jp/xml/refuge2/#307</url>
</refuge>
<refuge>
<no>308</no>
<areano>8</areano>
<area>豊</area>
<typeno>2</typeno>
<type>一時避難場所</type>
<name>下司町公園</name>
<address>下司町</address>
<latitude>35.940605</latitude>
<longitude>136.168443</longitude>
<url>http://www3.city.sabae.fukui.jp/xml/refuge2/#308</url>
</refuge>
<refuge>
<no>309</no>
<areano>8</areano>
<area>豊</area>
<typeno>2</typeno>
<type>一時避難場所</type>
<name>鳥井町春日神社</name>
<address>鳥井町</address>
<latitude>35.944418</latitude>
<longitude>136.167676</longitude>
<url>http://www3.city.sabae.fukui.jp/xml/refuge2/#309</url>
</refuge>
<refuge>
<no>310</no>
<areano>8</areano>
<area>豊</area>
<typeno>2</typeno>
<type>一時避難場所</type>
<name>当田町公民館</name>
<address>当田町</address>
<latitude>35.947758</latitude>
<longitude>136.163701</longitude>
<url>http://www3.city.sabae.fukui.jp/xml/refuge2/#310</url>
</refuge>
<refuge>
<no>311</no>
<areano>8</areano>
<area>豊</area>
<typeno>2</typeno>
<type>一時避難場所</type>
<name>下氏家町公民館</name>
<address>下氏家町</address>
<latitude>35.946169</latitude>
<longitude>136.15476</longitude>
<url>http://www3.city.sabae.fukui.jp/xml/refuge2/#311</url>
</refuge>
<refuge>
<no>312</no>
<areano>8</areano>
<area>豊</area>
<typeno>2</typeno>
<type>一時避難場所</type>
<name>青武台団地広場</name>
<address>青武台団地</address>
<latitude>35.939602</latitude>
<longitude>136.172693</longitude>
<url>http://www3.city.sabae.fukui.jp/xml/refuge2/#312</url>
</refuge>
<refuge>
<no>313</no>
<areano>8</areano>
<area>豊</area>
<typeno>2</typeno>
<type>一時避難場所</type>
<name>相生公園</name>
<address>相生</address>
<latitude>35.94933</latitude>
<longitude>136.146692</longitude>
<url>http://www3.city.sabae.fukui.jp/xml/refuge2/#313</url>
</refuge>
<refuge>
<no>314</no>
<areano>8</areano>
<area>豊</area>
<typeno>3</typeno>
<type>医療機関</type>
<name>鯖江内科医院</name>
<address>当田町１０－５－２</address>
<tel>+81-778-62-0111</tel>
<latitude>35.948346</latitude>
<longitude>136.163853</longitude>
<url>http://www3.city.sabae.fukui.jp/xml/refuge2/#314</url>
</refuge>
<refuge>
<no>315</no>
<areano>8</areano>
<area>豊</area>
<typeno>4</typeno>
<type>災害時要援護者利用施設</type>
<name>光道園ﾗｲﾄﾜｰｸｾﾝﾀｰ</name>
<address>和田町９字１－１</address>
<tel>+81-778-62-1234</tel>
<latitude>35.947538</latitude>
<longitude>136.138184</longitude>
<url>http://www3.city.sabae.fukui.jp/xml/refuge2/#315</url>
</refuge>
<refuge>
<no>316</no>
<areano>8</areano>
<area>豊</area>
<typeno>4</typeno>
<type>災害時要援護者利用施設</type>
<name>光道園ﾗｲﾌﾄﾚｰﾆﾝｸﾞｾﾝﾀｰ</name>
<latitude>35.947538</latitude>
<longitude>136.138184</longitude>
<url>http://www3.city.sabae.fukui.jp/xml/refuge2/#316</url>
</refuge>
<refuge>
<no>317</no>
<areano>8</areano>
<area>豊</area>
<typeno>4</typeno>
<type>災害時要援護者利用施設</type>
<name>福授園当田事業所</name>
<address>当田町１３字下半田１－１</address>
<tel>+81-778-62-0040</tel>
<latitude>35.951226</latitude>
<longitude>136.159915</longitude>
<url>http://www3.city.sabae.fukui.jp/xml/refuge2/#317</url>
</refuge>
<refuge>
<no>318</no>
<areano>8</areano>
<area>豊</area>
<typeno>4</typeno>
<type>災害時要援護者利用施設</type>
<name>五岳園</name>
<address>漆原町２０－８</address>
<tel>+81-778-62-2220</tel>
<latitude>35.938618</latitude>
<longitude>136.145611</longitude>
<url>http://www3.city.sabae.fukui.jp/xml/refuge2/#318</url>
</refuge>
<refuge>
<no>319</no>
<areano>8</areano>
<area>豊</area>
<typeno>4</typeno>
<type>災害時要援護者利用施設</type>
<name>デーサービスセンターうぐいすの里</name>
<tel>+81-778-62-2804</tel>
<latitude>35.938618</latitude>
<longitude>136.145611</longitude>
<url>http://www3.city.sabae.fukui.jp/xml/refuge2/#319</url>
</refuge>
<refuge>
<no>320</no>
<areano>8</areano>
<area>豊</area>
<typeno>4</typeno>
<type>災害時要援護者利用施設</type>
<name>のぞみ保育園</name>
<address>当田町１０－２－２</address>
<tel>+81-778-62-3234</tel>
<latitude>35.948229</latitude>
<longitude>136.162687</longitude>
<url>http://www3.city.sabae.fukui.jp/xml/refuge2/#320</url>
</refuge>
<refuge>
<no>321</no>
<areano>9</areano>
<area>北中山</area>
<typeno>1</typeno>
<type>避難所</type>
<name>北中山小学校</name>
<address>磯部町２５－１１</address>
<tel>+81-778-65-1019</tel>
<latitude>35.953387</latitude>
<longitude>136.243052</longitude>
<url>http://www3.city.sabae.fukui.jp/xml/refuge2/#321</url>
</refuge>
<refuge>
<no>322</no>
<areano>9</areano>
<area>北中山</area>
<typeno>1</typeno>
<type>避難所</type>
<name>東陽中学校</name>
<address>落井町３２－７</address>
<tel>+81-778-65-0104</tel>
<latitude>35.951083</latitude>
<longitude>136.22999</longitude>
<url>http://www3.city.sabae.fukui.jp/xml/refuge2/#322</url>
</refuge>
<refuge>
<no>323</no>
<areano>9</areano>
<area>北中山</area>
<typeno>1</typeno>
<type>避難所</type>
<name>北中山幼稚園</name>
<address>戸口町９－１１－４</address>
<tel>+81-778-65-2879</tel>
<latitude>35.953349</latitude>
<longitude>136.244121</longitude>
<url>http://www3.city.sabae.fukui.jp/xml/refuge2/#323</url>
</refuge>
<refuge>
<no>324</no>
<areano>9</areano>
<area>北中山</area>
<typeno>1</typeno>
<type>避難所</type>
<name>北中山公民館</name>
<address>落井町４１－３３－１</address>
<tel>+81-778-65-1001</tel>
<latitude>35.951798</latitude>
<longitude>136.23</longitude>
<url>http://www3.city.sabae.fukui.jp/xml/refuge2/#324</url>
</refuge>
<refuge>
<no>325</no>
<areano>9</areano>
<area>北中山</area>
<typeno>1</typeno>
<type>避難所</type>
<name>北中山児童センター</name>
<address>磯部町２５－２８</address>
<tel>+81-778-65-2390</tel>
<latitude>35.953256</latitude>
<longitude>136.242428</longitude>
<url>http://www3.city.sabae.fukui.jp/xml/refuge2/#325</url>
</refuge>
<refuge>
<no>326</no>
<areano>9</areano>
<area>北中山</area>
<typeno>1</typeno>
<type>避難所</type>
<name>戸口児童センター</name>
<address>戸口町１５－１８－３</address>
<tel>+81-778-65-0664</tel>
<latitude>35.951807</latitude>
<longitude>136.246267</longitude>
<url>http://www3.city.sabae.fukui.jp/xml/refuge2/#326</url>
</refuge>
<refuge>
<no>327</no>
<areano>9</areano>
<area>北中山</area>
<typeno>2</typeno>
<type>一時避難場所</type>
<name>満願寺</name>
<address>松成町</address>
<tel>+81-778-65-1301</tel>
<latitude>35.957151</latitude>
<longitude>136.223833</longitude>
<url>http://www3.city.sabae.fukui.jp/xml/refuge2/#327</url>
</refuge>
<refuge>
<no>328</no>
<areano>9</areano>
<area>北中山</area>
<typeno>2</typeno>
<type>一時避難場所</type>
<name>落井町公民館前</name>
<address>落井町</address>
<tel>+81-778-65-2665</tel>
<latitude>35.952671</latitude>
<longitude>136.234971</longitude>
<url>http://www3.city.sabae.fukui.jp/xml/refuge2/#328</url>
</refuge>
<refuge>
<no>329</no>
<areano>9</areano>
<area>北中山</area>
<typeno>2</typeno>
<type>一時避難場所</type>
<name>磯部集落センター</name>
<address>磯部町</address>
<latitude>35.959078</latitude>
<longitude>136.239878</longitude>
<url>http://www3.city.sabae.fukui.jp/xml/refuge2/#329</url>
</refuge>
<refuge>
<no>330</no>
<areano>9</areano>
<area>北中山</area>
<typeno>2</typeno>
<type>一時避難場所</type>
<name>戸口児童センター広場</name>
<address>戸口町</address>
<tel>+81-778-65-0664</tel>
<latitude>35.951772</latitude>
<longitude>136.246521</longitude>
<url>http://www3.city.sabae.fukui.jp/xml/refuge2/#330</url>
</refuge>
<refuge>
<no>331</no>
<areano>9</areano>
<area>北中山</area>
<typeno>2</typeno>
<type>一時避難場所</type>
<name>中戸口町篝場</name>
<address>中戸口町</address>
<latitude>35.95982</latitude>
<longitude>136.248171</longitude>
<url>http://www3.city.sabae.fukui.jp/xml/refuge2/#331</url>
</refuge>
<refuge>
<no>332</no>
<areano>9</areano>
<area>北中山</area>
<typeno>2</typeno>
<type>一時避難場所</type>
<name>上戸口町公民館</name>
<address>上戸口町</address>
<latitude>35.97104</latitude>
<longitude>136.255287</longitude>
<url>http://www3.city.sabae.fukui.jp/xml/refuge2/#332</url>
</refuge>
<refuge>
<no>333</no>
<areano>9</areano>
<area>北中山</area>
<typeno>2</typeno>
<type>一時避難場所</type>
<name>川島町公民館グラウンド</name>
<address>川島町</address>
<tel>+81-778-65-1964</tel>
<latitude>35.946915</latitude>
<longitude>136.230211</longitude>
<url>http://www3.city.sabae.fukui.jp/xml/refuge2/#333</url>
</refuge>
<refuge>
<no>334</no>
<areano>9</areano>
<area>北中山</area>
<typeno>3</typeno>
<type>医療機関</type>
<name>山岸医院</name>
<address>戸口町１５－１３－４</address>
<tel>+81-778-65-1084</tel>
<latitude>35.951629</latitude>
<longitude>136.246307</longitude>
<url>http://www3.city.sabae.fukui.jp/xml/refuge2/#334</url>
</refuge>
<refuge>
<no>335</no>
<areano>10</areano>
<area>河和田</area>
<typeno>1</typeno>
<type>避難所</type>
<name>河和田小学校</name>
<address>西袋町６７－８</address>
<tel>+81-778-65-0050</tel>
<latitude>35.953079</latitude>
<longitude>136.278772</longitude>
<url>http://www3.city.sabae.fukui.jp/xml/refuge2/#335</url>
</refuge>
<refuge>
<no>336</no>
<areano>10</areano>
<area>河和田</area>
<typeno>1</typeno>
<type>避難所</type>
<name>かわだ保育所</name>
<address>莇生田町１０－５－１</address>
<tel>+81-778-65-0173</tel>
<latitude>35.946236</latitude>
<longitude>136.272356</longitude>
<url>http://www3.city.sabae.fukui.jp/xml/refuge2/#336</url>
</refuge>
<refuge>
<no>337</no>
<areano>10</areano>
<area>河和田</area>
<typeno>1</typeno>
<type>避難所</type>
<name>ラポーゼかわだ</name>
<address>上河内町１９－３７－２</address>
<tel>+81-778-65-0012</tel>
<latitude>35.948078</latitude>
<longitude>136.300819</longitude>
<url>http://www3.city.sabae.fukui.jp/xml/refuge2/#337</url>
</refuge>
<refuge>
<no>338</no>
<areano>10</areano>
<area>河和田</area>
<typeno>1</typeno>
<type>避難所</type>
<name>東部児童センター</name>
<address>別司町２１－１７</address>
<tel>+81-778-65-1119</tel>
<latitude>35.948329</latitude>
<longitude>136.258044</longitude>
<url>http://www3.city.sabae.fukui.jp/xml/refuge2/#338</url>
</refuge>
<refuge>
<no>339</no>
<areano>10</areano>
<area>河和田</area>
<typeno>1</typeno>
<type>避難所</type>
<name>越前漆器伝統産業会館（うるしの里会館）</name>
<address>西袋町４０－１－２</address>
<tel>+81-778-65-2727</tel>
<latitude>35.95314</latitude>
<longitude>136.273902</longitude>
<url>http://www3.city.sabae.fukui.jp/xml/refuge2/#339</url>
</refuge>
<refuge>
<no>340</no>
<areano>10</areano>
